{
"type": "FeatureCollection",
"name": "sf_schools",
"crs": { "type": "name", "properties": { "name": "urn:ogc:def:crs:OGC:1.3:CRS84" } },
"features": [
{ "type": "Feature", "properties": { "address": "659 PINE ST", "city": "SAN FRANCISCO", "country": "USA", "county": "SAN FRANCISCO", "countyfips": "07506", "districtid": null, "end_grade": "13", "enrollment": 258.0, "fid": 341, "ft_teacher": 21, "globalid": null, "latitude": 37.79111, "level_": "1", "level_clean": null, "longitude": -122.406461, "naics_code": "611110", "naics_desc": "ELEMENTARY AND SECONDARY SCHOOLS", "name": "ECOLE NOTRE DAME DES VICTOIRES SCHOOL", "ncesid": "00072439", "population": 279, "shelter_id": "NOT AVAILABLE", "source": "https://nces.ed.gov/surveys/pss/privateschoolsearch/school_list.asp?SchoolID=00072439", "source_dat": "1706659200000", "st_grade": "3", "state": "CA", "status": "1", "telephone": "(415) 421-0069", "type": "1", "val_date": "1275868800000", "val_method": "IMAGERY", "website": "NOT AVAILABLE", "zip": "94108", "zip4": "3210", "school_id": 0 }, "geometry": { "type": "Point", "coordinates": [ -13626224.908346181735396, 4549958.544286939315498 ] } },
{ "type": "Feature", "properties": { "address": "600 ITALY AVE", "city": "SAN FRANCISCO", "country": "USA", "county": "SAN FRANCISCO", "countyfips": "07506", "districtid": null, "end_grade": "13", "enrollment": 185.0, "fid": 342, "ft_teacher": 9, "globalid": null, "latitude": 37.71572, "level_": "1", "level_clean": null, "longitude": -122.434531, "naics_code": "611110", "naics_desc": "ELEMENTARY AND SECONDARY SCHOOLS", "name": "SCHOOL OF THE EPIPHANY", "ncesid": "00072461", "population": 194, "shelter_id": "10780967", "source": "https://nces.ed.gov/surveys/pss/privateschoolsearch/school_list.asp?SchoolID=00072461", "source_dat": "1706659200000", "st_grade": "3", "state": "CA", "status": "1", "telephone": "(415) 337-4030", "type": "1", "val_date": "1275868800000", "val_method": "IMAGERY/OTHER", "website": "NOT AVAILABLE", "zip": "94112", "zip4": "3519", "school_id": 1 }, "geometry": { "type": "Point", "coordinates": [ -13629349.646389396861196, 4539344.056197443045676 ] } },
{ "type": "Feature", "properties": { "address": "1560 40TH AVE", "city": "SAN FRANCISCO", "country": "USA", "county": "SAN FRANCISCO", "countyfips": "07506", "districtid": null, "end_grade": "13", "enrollment": 344.0, "fid": 343, "ft_teacher": 35, "globalid": null, "latitude": 37.75761, "level_": "1", "level_clean": null, "longitude": -122.498881, "naics_code": "611110", "naics_desc": "ELEMENTARY AND SECONDARY SCHOOLS", "name": "HOLY NAME ELEMENTARY SCHOOL", "ncesid": "00072472", "population": 379, "shelter_id": "NOT AVAILABLE", "source": "https://nces.ed.gov/surveys/pss/privateschoolsearch/school_list.asp?SchoolID=00072472", "source_dat": "1706659200000", "st_grade": "2", "state": "CA", "status": "1", "telephone": "(415) 731-4077", "type": "1", "val_date": "1262131200000", "val_method": "IMAGERY/OTHER", "website": "NOT AVAILABLE", "zip": "94122", "zip4": "3099", "school_id": 2 }, "geometry": { "type": "Point", "coordinates": [ -13636513.055694529786706, 4545240.597393214702606 ] } },
{ "type": "Feature", "properties": { "address": "3625 24TH ST", "city": "SAN FRANCISCO", "country": "USA", "county": "SAN FRANCISCO", "countyfips": "07506", "districtid": null, "end_grade": "17", "enrollment": 336.0, "fid": 344, "ft_teacher": 33, "globalid": null, "latitude": 37.7518, "level_": "2", "level_clean": null, "longitude": -122.423471, "naics_code": "611110", "naics_desc": "ELEMENTARY AND SECONDARY SCHOOLS", "name": "ICA CRISTO REY", "ncesid": "00072483", "population": 369, "shelter_id": "NOT AVAILABLE", "source": "https://nces.ed.gov/surveys/pss/privateschoolsearch/school_list.asp?SchoolID=00072483", "source_dat": "1706659200000", "st_grade": "14", "state": "CA", "status": "1", "telephone": "(415) 824-2052", "type": "1", "val_date": "1262131200000", "val_method": "IMAGERY/OTHER", "website": "NOT AVAILABLE", "zip": "94110", "zip4": "NOT AVAILABLE", "school_id": 3 }, "geometry": { "type": "Point", "coordinates": [ -13628118.452908098697662, 4544422.567810168489814 ] } },
{ "type": "Feature", "properties": { "address": "925 CHENERY ST", "city": "SAN FRANCISCO", "country": "USA", "county": "SAN FRANCISCO", "countyfips": "06075", "districtid": null, "end_grade": "13", "enrollment": 138.0, "fid": 345, "ft_teacher": 13, "globalid": null, "latitude": 37.7350789, "level_": "1", "level_clean": null, "longitude": -122.4379593, "naics_code": "611110", "naics_desc": "ELEMENTARY AND SECONDARY SCHOOLS", "name": "ST JOHN THE EVANGELIST SCHOOL", "ncesid": "00072508", "population": 151, "shelter_id": "NOT AVAILABLE", "source": "https://nces.ed.gov/surveys/pss/privateschoolsearch/school_list.asp?SchoolID=00072508", "source_dat": "1706659200000", "st_grade": "3", "state": "CA", "status": "1", "telephone": "(415) 584-8383", "type": "1", "val_date": "1710720000000", "val_method": "IMAGERY/OTHER", "website": "NOT AVAILABLE", "zip": "94131", "zip4": "2962", "school_id": 4 }, "geometry": { "type": "Point", "coordinates": [ -13629731.279915794730186, 4542068.65493231266737 ] } },
{ "type": "Feature", "properties": { "address": "3371 16TH ST", "city": "SAN FRANCISCO", "country": "USA", "county": "SAN FRANCISCO", "countyfips": "07506", "districtid": null, "end_grade": "13", "enrollment": 221.0, "fid": 346, "ft_teacher": 11, "globalid": null, "latitude": 37.764362, "level_": "1", "level_clean": null, "longitude": -122.42808, "naics_code": "611110", "naics_desc": "ELEMENTARY AND SECONDARY SCHOOLS", "name": "MISSION DOLORES ACADEMY", "ncesid": "00072541", "population": 232, "shelter_id": "NOT AVAILABLE", "source": "https://nces.ed.gov/surveys/pss/privateschoolsearch/school_list.asp?SchoolID=00072541", "source_dat": "1706659200000", "st_grade": "3", "state": "CA", "status": "1", "telephone": "(415) 346-9500", "type": "1", "val_date": "1262131200000", "val_method": "IMAGERY/OTHER", "website": "NOT AVAILABLE", "zip": "94114", "zip4": "1712", "school_id": 5 }, "geometry": { "type": "Point", "coordinates": [ -13628631.524375023320317, 4546191.33807513769716 ] } },
{ "type": "Feature", "properties": { "address": "795 SUNNYDALE AVE", "city": "SAN FRANCISCO", "country": "USA", "county": "SAN FRANCISCO", "countyfips": "07506", "districtid": null, "end_grade": "13", "enrollment": 244.0, "fid": 347, "ft_teacher": 11, "globalid": null, "latitude": 37.709589, "level_": "1", "level_clean": null, "longitude": -122.409619, "naics_code": "611110", "naics_desc": "ELEMENTARY AND SECONDARY SCHOOLS", "name": "OUR LADY OF THE VISITACION SCHOOL", "ncesid": "00072574", "population": 255, "shelter_id": "NOT AVAILABLE", "source": "https://nces.ed.gov/surveys/pss/privateschoolsearch/school_list.asp?SchoolID=00072574", "source_dat": "1706659200000", "st_grade": "3", "state": "CA", "status": "1", "telephone": "(415) 239-7840", "type": "1", "val_date": "1262131200000", "val_method": "IMAGERY/OTHER", "website": "NOT AVAILABLE", "zip": "94134", "zip4": "2842", "school_id": 6 }, "geometry": { "type": "Point", "coordinates": [ -13626576.45529161952436, 4538481.321016470901668 ] } },
{ "type": "Feature", "properties": { "address": "175 FRIDA KAHLO WAY", "city": "SAN FRANCISCO", "country": "USA", "county": "SAN FRANCISCO", "countyfips": "06075", "districtid": null, "end_grade": "17", "enrollment": 976.0, "fid": 348, "ft_teacher": 65, "globalid": null, "latitude": 37.728149, "level_": "2", "level_clean": null, "longitude": -122.452783, "naics_code": "611110", "naics_desc": "ELEMENTARY AND SECONDARY SCHOOLS", "name": "ARCHBISHOP RIORDAN HIGH SCHOOL", "ncesid": "00072596", "population": 1041, "shelter_id": "NOT AVAILABLE", "source": "https://nces.ed.gov/surveys/pss/privateschoolsearch/school_list.asp?SchoolID=00072596", "source_dat": "1706659200000", "st_grade": "14", "state": "CA", "status": "1", "telephone": "(415) 731-6700", "type": "1", "val_date": "1710288000000", "val_method": "IMAGERY/OTHER", "website": "NOT AVAILABLE", "zip": "94112", "zip4": "1822", "school_id": 7 }, "geometry": { "type": "Point", "coordinates": [ -13631381.4498276617378, 4541093.245190496556461 ] } },
{ "type": "Feature", "properties": { "address": "1320 14TH AVE", "city": "SAN FRANCISCO", "country": "USA", "county": "SAN FRANCISCO", "countyfips": "07506", "districtid": null, "end_grade": "13", "enrollment": 227.0, "fid": 349, "ft_teacher": 14, "globalid": null, "latitude": 37.763396, "level_": "1", "level_clean": null, "longitude": -122.471458, "naics_code": "611110", "naics_desc": "ELEMENTARY AND SECONDARY SCHOOLS", "name": "ST ANNE ELEMENTARY SCHOOL", "ncesid": "00072654", "population": 241, "shelter_id": "NOT AVAILABLE", "source": "https://nces.ed.gov/surveys/pss/privateschoolsearch/school_list.asp?SchoolID=00072654", "source_dat": "1706659200000", "st_grade": "3", "state": "CA", "status": "1", "telephone": "(415) 664-7977", "type": "1", "val_date": "1262131200000", "val_method": "IMAGERY/OTHER", "website": "NOT AVAILABLE", "zip": "94122", "zip4": "NOT AVAILABLE", "school_id": 8 }, "geometry": { "type": "Point", "coordinates": [ -13633460.341279432177544, 4546055.31154721416533 ] } },
{ "type": "Feature", "properties": { "address": "299 PRECITA AVE", "city": "SAN FRANCISCO", "country": "USA", "county": "SAN FRANCISCO", "countyfips": "06075", "districtid": null, "end_grade": "13", "enrollment": 185.0, "fid": 350, "ft_teacher": 10, "globalid": null, "latitude": 37.7475182, "level_": "1", "level_clean": null, "longitude": -122.4138822, "naics_code": "611110", "naics_desc": "ELEMENTARY AND SECONDARY SCHOOLS", "name": "ST ANTHONY - IMMACULATE CONCEPTION SCHOOL", "ncesid": "00072665", "population": 195, "shelter_id": "NOT AVAILABLE", "source": "https://nces.ed.gov/surveys/pss/privateschoolsearch/school_list.asp?SchoolID=00072665", "source_dat": "1706659200000", "st_grade": "3", "state": "CA", "status": "1", "telephone": "(415) 648-2008", "type": "1", "val_date": "1710720000000", "val_method": "IMAGERY/OTHER", "website": "NOT AVAILABLE", "zip": "94110", "zip4": "4627", "school_id": 9 }, "geometry": { "type": "Point", "coordinates": [ -13627051.035869237035513, 4543819.742106317542493 ] } },
{ "type": "Feature", "properties": { "address": "2250 FRANKLIN ST", "city": "SAN FRANCISCO", "country": "USA", "county": "SAN FRANCISCO", "countyfips": "07506", "districtid": null, "end_grade": "13", "enrollment": 140.0, "fid": 351, "ft_teacher": 12, "globalid": null, "latitude": 37.795425, "level_": "1", "level_clean": null, "longitude": -122.424926, "naics_code": "611110", "naics_desc": "ELEMENTARY AND SECONDARY SCHOOLS", "name": "ST BRIGID SCHOOL", "ncesid": "00072687", "population": 152, "shelter_id": "NOT AVAILABLE", "source": "https://nces.ed.gov/surveys/pss/privateschoolsearch/school_list.asp?SchoolID=00072687", "source_dat": "1706659200000", "st_grade": "3", "state": "CA", "status": "1", "telephone": "(415) 673-4523", "type": "1", "val_date": "1275868800000", "val_method": "IMAGERY", "website": "NOT AVAILABLE", "zip": "94109", "zip4": "2496", "school_id": 10 }, "geometry": { "type": "Point", "coordinates": [ -13628280.422728072851896, 4550566.399388602003455 ] } },
{ "type": "Feature", "properties": { "address": "660 VICENTE ST", "city": "SAN FRANCISCO", "country": "USA", "county": "SAN FRANCISCO", "countyfips": "07506", "districtid": null, "end_grade": "13", "enrollment": 531.0, "fid": 352, "ft_teacher": 25, "globalid": null, "latitude": 37.7397, "level_": "1", "level_clean": null, "longitude": -122.474195, "naics_code": "611110", "naics_desc": "ELEMENTARY AND SECONDARY SCHOOLS", "name": "ST CECILIA SCHOOL", "ncesid": "00072698", "population": 556, "shelter_id": "NOT AVAILABLE", "source": "https://nces.ed.gov/surveys/pss/privateschoolsearch/school_list.asp?SchoolID=00072698", "source_dat": "1706659200000", "st_grade": "3", "state": "CA", "status": "1", "telephone": "(415) 731-8400", "type": "1", "val_date": "1262131200000", "val_method": "IMAGERY/OTHER", "website": "NOT AVAILABLE", "zip": "94116", "zip4": "3077", "school_id": 11 }, "geometry": { "type": "Point", "coordinates": [ -13633765.022760501131415, 4542719.132629078812897 ] } },
{ "type": "Feature", "properties": { "address": "419 HEARST AVE", "city": "SAN FRANCISCO", "country": "USA", "county": "SAN FRANCISCO", "countyfips": "06075", "districtid": null, "end_grade": "13", "enrollment": 250.0, "fid": 353, "ft_teacher": 11, "globalid": null, "latitude": 37.7303982, "level_": "1", "level_clean": null, "longitude": -122.4473986, "naics_code": "611110", "naics_desc": "ELEMENTARY AND SECONDARY SCHOOLS", "name": "ST FINN BARR CATHOLIC SCHOOL", "ncesid": "00072745", "population": 261, "shelter_id": "NOT AVAILABLE", "source": "https://nces.ed.gov/surveys/pss/privateschoolsearch/school_list.asp?SchoolID=00072745", "source_dat": "1706659200000", "st_grade": "3", "state": "CA", "status": "1", "telephone": "(415) 333-1800", "type": "1", "val_date": "1710720000000", "val_method": "IMAGERY/OTHER", "website": "NOT AVAILABLE", "zip": "94112", "zip4": "1398", "school_id": 12 }, "geometry": { "type": "Point", "coordinates": [ -13630782.06243285164237, 4541409.818354279734194 ] } },
{ "type": "Feature", "properties": { "address": "2550 41ST AVE", "city": "SAN FRANCISCO", "country": "USA", "county": "SAN FRANCISCO", "countyfips": "07506", "districtid": null, "end_grade": "13", "enrollment": 443.0, "fid": 354, "ft_teacher": 27, "globalid": null, "latitude": 37.73953, "level_": "1", "level_clean": null, "longitude": -122.498681, "naics_code": "611110", "naics_desc": "ELEMENTARY AND SECONDARY SCHOOLS", "name": "ST GABRIEL ELEMENTARY SCHOOL", "ncesid": "00072756", "population": 470, "shelter_id": "NOT AVAILABLE", "source": "https://nces.ed.gov/surveys/pss/privateschoolsearch/school_list.asp?SchoolID=00072756", "source_dat": "1706659200000", "st_grade": "2", "state": "CA", "status": "1", "telephone": "(415) 566-0314", "type": "1", "val_date": "1262131200000", "val_method": "IMAGERY/OTHER", "website": "NOT AVAILABLE", "zip": "94116", "zip4": "2797", "school_id": 13 }, "geometry": { "type": "Point", "coordinates": [ -13636490.791770784184337, 4542695.202087199315429 ] } },
{ "type": "Feature", "properties": { "address": "2001 37TH AVE", "city": "SAN FRANCISCO", "country": "USA", "county": "SAN FRANCISCO", "countyfips": "07506", "districtid": null, "end_grade": "17", "enrollment": 1589.0, "fid": 355, "ft_teacher": 131, "globalid": null, "latitude": 37.748062, "level_": "3", "level_clean": null, "longitude": -122.495913, "naics_code": "611110", "naics_desc": "ELEMENTARY AND SECONDARY SCHOOLS", "name": "ST IGNATIUS COLLEGE PREPARATORY", "ncesid": "00072767", "population": 1720, "shelter_id": "10780985", "source": "https://nces.ed.gov/surveys/pss/privateschoolsearch/school_list.asp?SchoolID=00072767", "source_dat": "1706659200000", "st_grade": "11", "state": "CA", "status": "1", "telephone": "(415) 731-7500", "type": "1", "val_date": "1275868800000", "val_method": "IMAGERY", "website": "NOT AVAILABLE", "zip": "94116", "zip4": "1165", "school_id": 14 }, "geometry": { "type": "Point", "coordinates": [ -13636182.659426584839821, 4543896.30333146918565 ] } },
{ "type": "Feature", "properties": { "address": "1266 FLORIDA ST", "city": "SAN FRANCISCO", "country": "USA", "county": "SAN FRANCISCO", "countyfips": "07506", "districtid": null, "end_grade": "13", "enrollment": 196.0, "fid": 356, "ft_teacher": 12, "globalid": null, "latitude": 37.751661, "level_": "1", "level_clean": null, "longitude": -122.410176, "naics_code": "611110", "naics_desc": "ELEMENTARY AND SECONDARY SCHOOLS", "name": "ST PETER'S SCHOOL", "ncesid": "00072869", "population": 208, "shelter_id": "NOT AVAILABLE", "source": "https://nces.ed.gov/surveys/pss/privateschoolsearch/school_list.asp?SchoolID=00072869", "source_dat": "1706659200000", "st_grade": "3", "state": "CA", "status": "1", "telephone": "(415) 647-8662", "type": "1", "val_date": "1262131200000", "val_method": "IMAGERY/OTHER", "website": "NOT AVAILABLE", "zip": "94110", "zip4": "4192", "school_id": 15 }, "geometry": { "type": "Point", "coordinates": [ -13626638.460204115137458, 4544402.997950810939074 ] } },
{ "type": "Feature", "properties": { "address": "660 FILBERT ST", "city": "SAN FRANCISCO", "country": "USA", "county": "SAN FRANCISCO", "countyfips": "06075", "districtid": null, "end_grade": "13", "enrollment": 155.0, "fid": 357, "ft_teacher": 13, "globalid": null, "latitude": 37.80158, "level_": "1", "level_clean": null, "longitude": -122.410191, "naics_code": "611110", "naics_desc": "ELEMENTARY AND SECONDARY SCHOOLS", "name": "STS PETER & PAUL SCHOOL", "ncesid": "00072891", "population": 168, "shelter_id": "NOT AVAILABLE", "source": "https://nces.ed.gov/surveys/pss/privateschoolsearch/school_list.asp?SchoolID=00072891", "source_dat": "1706659200000", "st_grade": "3", "state": "CA", "status": "1", "telephone": "(415) 421-5219", "type": "1", "val_date": "1710720000000", "val_method": "IMAGERY/OTHER", "website": "NOT AVAILABLE", "zip": "94133", "zip4": "2805", "school_id": 16 }, "geometry": { "type": "Point", "coordinates": [ -13626640.130073482170701, 4551433.51739346049726 ] } },
{ "type": "Feature", "properties": { "address": "665 ELIZABETH ST", "city": "SAN FRANCISCO", "country": "USA", "county": "SAN FRANCISCO", "countyfips": "07506", "districtid": null, "end_grade": "13", "enrollment": 263.0, "fid": 358, "ft_teacher": 10, "globalid": null, "latitude": 37.75176, "level_": "1", "level_clean": null, "longitude": -122.435511, "naics_code": "611110", "naics_desc": "ELEMENTARY AND SECONDARY SCHOOLS", "name": "ST PHILIP SCHOOL", "ncesid": "00072905", "population": 273, "shelter_id": "NOT AVAILABLE", "source": "https://nces.ed.gov/surveys/pss/privateschoolsearch/school_list.asp?SchoolID=00072905", "source_dat": "1706659200000", "st_grade": "3", "state": "CA", "status": "1", "telephone": "(415) 824-8467", "type": "1", "val_date": "1262131200000", "val_method": "IMAGERY/OTHER", "website": "NOT AVAILABLE", "zip": "94114", "zip4": "3229", "school_id": 17 }, "geometry": { "type": "Point", "coordinates": [ -13629458.739515624940395, 4544416.936280557885766 ] } },
{ "type": "Feature", "properties": { "address": "401 EUCALYPTUS DR", "city": "SAN FRANCISCO", "country": "USA", "county": "SAN FRANCISCO", "countyfips": "07506", "districtid": null, "end_grade": "13", "enrollment": 258.0, "fid": 359, "ft_teacher": 13, "globalid": null, "latitude": 37.73065, "level_": "1", "level_clean": null, "longitude": -122.477711, "naics_code": "611110", "naics_desc": "ELEMENTARY AND SECONDARY SCHOOLS", "name": "ST STEPHEN SCHOOL", "ncesid": "00072927", "population": 271, "shelter_id": "NOT AVAILABLE", "source": "https://nces.ed.gov/surveys/pss/privateschoolsearch/school_list.asp?SchoolID=00072927", "source_dat": "1706659200000", "st_grade": "2", "state": "CA", "status": "1", "telephone": "(415) 664-8331", "type": "1", "val_date": "1262131200000", "val_method": "IMAGERY/OTHER", "website": "NOT AVAILABLE", "zip": "94132", "zip4": "1500", "school_id": 18 }, "geometry": { "type": "Point", "coordinates": [ -13634156.422019315883517, 4541445.257678272202611 ] } },
{ "type": "Feature", "properties": { "address": "50 THOMAS MORE WAY", "city": "SAN FRANCISCO", "country": "USA", "county": "SAN FRANCISCO", "countyfips": "07506", "districtid": null, "end_grade": "13", "enrollment": 242.0, "fid": 360, "ft_teacher": 14, "globalid": null, "latitude": 37.712355, "level_": "1", "level_clean": null, "longitude": -122.473703, "naics_code": "611110", "naics_desc": "ELEMENTARY AND SECONDARY SCHOOLS", "name": "ST THOMAS MORE ELEMENTARY SCHOOL", "ncesid": "00072949", "population": 256, "shelter_id": "NOT AVAILABLE", "source": "https://nces.ed.gov/surveys/pss/privateschoolsearch/school_list.asp?SchoolID=00072949", "source_dat": "1706659200000", "st_grade": "2", "state": "CA", "status": "1", "telephone": "(415) 337-0100", "type": "1", "val_date": "1262131200000", "val_method": "IMAGERY/OTHER", "website": "NOT AVAILABLE", "zip": "94132", "zip4": "2911", "school_id": 19 }, "geometry": { "type": "Point", "coordinates": [ -13633710.253548137843609, 4538870.535021227784455 ] } },
{ "type": "Feature", "properties": { "address": "2350 GREEN ST", "city": "SAN FRANCISCO", "country": "USA", "county": "SAN FRANCISCO", "countyfips": "06075", "districtid": null, "end_grade": "13", "enrollment": 229.0, "fid": 361, "ft_teacher": 16, "globalid": null, "latitude": 37.7961, "level_": "1", "level_clean": null, "longitude": -122.437941, "naics_code": "611110", "naics_desc": "ELEMENTARY AND SECONDARY SCHOOLS", "name": "ST VINCENT DE PAUL SCHOOL", "ncesid": "00072971", "population": 245, "shelter_id": "NOT AVAILABLE", "source": "https://nces.ed.gov/surveys/pss/privateschoolsearch/school_list.asp?SchoolID=00072971", "source_dat": "1706659200000", "st_grade": "3", "state": "CA", "status": "1", "telephone": "(415) 346-5505", "type": "1", "val_date": "1710720000000", "val_method": "IMAGERY/OTHER", "website": "NOT AVAILABLE", "zip": "94123", "zip4": "4625", "school_id": 20 }, "geometry": { "type": "Point", "coordinates": [ -13629729.245938822627068, 4550661.490106509998441 ] } },
{ "type": "Feature", "properties": { "address": "479 MILLER AVE", "city": "SOUTH SAN FRANCISCO", "country": "USA", "county": "SAN MATEO", "countyfips": "08106", "districtid": null, "end_grade": "13", "enrollment": 235.0, "fid": 366, "ft_teacher": 11, "globalid": null, "latitude": 37.657249, "level_": "1", "level_clean": null, "longitude": -122.415312, "naics_code": "611110", "naics_desc": "ELEMENTARY AND SECONDARY SCHOOLS", "name": "ALL SOULS CATHOLIC ELEMENTARY SCHOOL", "ncesid": "00073228", "population": 246, "shelter_id": "NOT AVAILABLE", "source": "https://nces.ed.gov/surveys/pss/privateschoolsearch/school_list.asp?SchoolID=00073228", "source_dat": "1706659200000", "st_grade": "3", "state": "CA", "status": "1", "telephone": "(650) 583-3562", "type": "1", "val_date": "1262131200000", "val_method": "IMAGERY/OTHER", "website": "NOT AVAILABLE", "zip": "94080", "zip4": "2703", "school_id": 21 }, "geometry": { "type": "Point", "coordinates": [ -13627210.197145139798522, 4531119.103289631195366 ] } },
{ "type": "Feature", "properties": { "address": "434 ALIDA WAY", "city": "SOUTH SAN FRANCISCO", "country": "USA", "county": "SAN MATEO", "countyfips": "08106", "districtid": null, "end_grade": "13", "enrollment": 276.0, "fid": 367, "ft_teacher": 13, "globalid": null, "latitude": 37.6461, "level_": "1", "level_clean": null, "longitude": -122.429851, "naics_code": "611110", "naics_desc": "ELEMENTARY AND SECONDARY SCHOOLS", "name": "ST VERONICA CATHOLIC SCHOOL", "ncesid": "00073261", "population": 289, "shelter_id": "NOT AVAILABLE", "source": "https://nces.ed.gov/surveys/pss/privateschoolsearch/school_list.asp?SchoolID=00073261", "source_dat": "1706659200000", "st_grade": "3", "state": "CA", "status": "1", "telephone": "(650) 589-3909", "type": "1", "val_date": "1262131200000", "val_method": "IMAGERY/OTHER", "website": "NOT AVAILABLE", "zip": "94080", "zip4": "4399", "school_id": 22 }, "geometry": { "type": "Point", "coordinates": [ -13628828.671174488961697, 4529551.540092328563333 ] } },
{ "type": "Feature", "properties": { "address": "1555 MARIPOSA ST", "city": "SAN FRANCISCO", "country": "USA", "county": "SAN FRANCISCO", "countyfips": "07506", "districtid": null, "end_grade": "13", "enrollment": 420.0, "fid": 576, "ft_teacher": 69, "globalid": null, "latitude": 37.76356, "level_": "1", "level_clean": null, "longitude": -122.399461, "naics_code": "611110", "naics_desc": "ELEMENTARY AND SECONDARY SCHOOLS", "name": "LIVE OAK SCHOOL", "ncesid": "00079514", "population": 489, "shelter_id": "NOT AVAILABLE", "source": "https://nces.ed.gov/surveys/pss/privateschoolsearch/school_list.asp?SchoolID=00079514", "source_dat": "1706659200000", "st_grade": "3", "state": "CA", "status": "1", "telephone": "(415) 861-8840", "type": "1", "val_date": "1275868800000", "val_method": "IMAGERY", "website": "NOT AVAILABLE", "zip": "94107", "zip4": "2333", "school_id": 23 }, "geometry": { "type": "Point", "coordinates": [ -13625445.671916188672185, 4546078.404887869022787 ] } },
{ "type": "Feature", "properties": { "address": "2750 JACKSON ST", "city": "SAN FRANCISCO", "country": "USA", "county": "SAN FRANCISCO", "countyfips": "07506", "districtid": null, "end_grade": "13", "enrollment": 414.0, "fid": 600, "ft_teacher": 68, "globalid": null, "latitude": 37.79203, "level_": "1", "level_clean": null, "longitude": -122.440121, "naics_code": "611110", "naics_desc": "ELEMENTARY AND SECONDARY SCHOOLS", "name": "TOWN SCHOOL FOR BOYS", "ncesid": "00080858", "population": 482, "shelter_id": "NOT AVAILABLE", "source": "https://nces.ed.gov/surveys/pss/privateschoolsearch/school_list.asp?SchoolID=00080858", "source_dat": "1706659200000", "st_grade": "3", "state": "CA", "status": "1", "telephone": "(415) 746-1114", "type": "1", "val_date": "1275868800000", "val_method": "IMAGERY", "website": "NOT AVAILABLE", "zip": "94115", "zip4": "1144", "school_id": 24 }, "geometry": { "type": "Point", "coordinates": [ -13629971.92240728251636, 4550088.141975726000965 ] } },
{ "type": "Feature", "properties": { "address": "200 SLOAT BLVD", "city": "SAN FRANCISCO", "country": "USA", "county": "SAN FRANCISCO", "countyfips": "07506", "districtid": null, "end_grade": "13", "enrollment": 343.0, "fid": 639, "ft_teacher": 18, "globalid": null, "latitude": 37.735, "level_": "1", "level_clean": null, "longitude": -122.474141, "naics_code": "611110", "naics_desc": "ELEMENTARY AND SECONDARY SCHOOLS", "name": "WEST PORTAL LUTHERAN SCHOOL", "ncesid": "00082345", "population": 361, "shelter_id": "NOT AVAILABLE", "source": "https://nces.ed.gov/surveys/pss/privateschoolsearch/school_list.asp?SchoolID=00082345", "source_dat": "1706659200000", "st_grade": "3", "state": "CA", "status": "1", "telephone": "(415) 665-6330", "type": "1", "val_date": "1262131200000", "val_method": "IMAGERY/OTHER", "website": "NOT AVAILABLE", "zip": "94132", "zip4": "1621", "school_id": 25 }, "geometry": { "type": "Point", "coordinates": [ -13633759.011431010439992, 4542057.542781390249729 ] } },
{ "type": "Feature", "properties": { "address": "495 9TH AVE", "city": "SAN FRANCISCO", "country": "USA", "county": "SAN FRANCISCO", "countyfips": "07506", "districtid": null, "end_grade": "13", "enrollment": 152.0, "fid": 640, "ft_teacher": 13, "globalid": null, "latitude": 37.77924, "level_": "1", "level_clean": null, "longitude": -122.467631, "naics_code": "611110", "naics_desc": "ELEMENTARY AND SECONDARY SCHOOLS", "name": "ZION LUTHERAN SCHOOL", "ncesid": "00082356", "population": 165, "shelter_id": "10789744", "source": "https://nces.ed.gov/surveys/pss/privateschoolsearch/school_list.asp?SchoolID=00082356", "source_dat": "1706659200000", "st_grade": "3", "state": "CA", "status": "1", "telephone": "(415) 221-7500", "type": "1", "val_date": "1292716800000", "val_method": "IMAGERY/OTHER", "website": "NOT AVAILABLE", "zip": "94118", "zip4": "2912", "school_id": 26 }, "geometry": { "type": "Point", "coordinates": [ -13633034.321564134210348, 4548286.597260429523885 ] } },
{ "type": "Feature", "properties": { "address": "25 WHITTIER ST", "city": "SAN FRANCISCO", "country": "USA", "county": "SAN FRANCISCO", "countyfips": "07506", "districtid": null, "end_grade": "17", "enrollment": 258.0, "fid": 658, "ft_teacher": 22, "globalid": null, "latitude": 37.71004, "level_": "3", "level_clean": null, "longitude": -122.447751, "naics_code": "611110", "naics_desc": "ELEMENTARY AND SECONDARY SCHOOLS", "name": "SAN FRANCISCO CHRISTIAN SCHOOL", "ncesid": "00083145", "population": 280, "shelter_id": "NOT AVAILABLE", "source": "https://nces.ed.gov/surveys/pss/privateschoolsearch/school_list.asp?SchoolID=00083145", "source_dat": "1706659200000", "st_grade": "3", "state": "CA", "status": "1", "telephone": "(415) 586-1117", "type": "1", "val_date": "1275955200000", "val_method": "IMAGERY", "website": "NOT AVAILABLE", "zip": "94112", "zip4": "4295", "school_id": 27 }, "geometry": { "type": "Point", "coordinates": [ -13630821.290147004649043, 4538544.781908714212477 ] } },
{ "type": "Feature", "properties": { "address": "7070 CALIFORNIA ST", "city": "SAN FRANCISCO", "country": "USA", "county": "SAN FRANCISCO", "countyfips": "07506", "districtid": null, "end_grade": "13", "enrollment": 402.0, "fid": 669, "ft_teacher": 48, "globalid": null, "latitude": 37.784404, "level_": "1", "level_clean": null, "longitude": -122.493225, "naics_code": "611110", "naics_desc": "ELEMENTARY AND SECONDARY SCHOOLS", "name": "KATHERINE DELMAR BURKE SCHOOL", "ncesid": "00083495", "population": 450, "shelter_id": "NOT AVAILABLE", "source": "https://nces.ed.gov/surveys/pss/privateschoolsearch/school_list.asp?SchoolID=00083495", "source_dat": "1706659200000", "st_grade": "3", "state": "CA", "status": "1", "telephone": "(415) 751-0177", "type": "1", "val_date": "1275868800000", "val_method": "IMAGERY", "website": "NOT AVAILABLE", "zip": "94121", "zip4": "1710", "school_id": 28 }, "geometry": { "type": "Point", "coordinates": [ -13635883.43265188857913, 4549013.938751521520317 ] } },
{ "type": "Feature", "properties": { "address": "3065 JACKSON ST", "city": "SAN FRANCISCO", "country": "USA", "county": "SAN FRANCISCO", "countyfips": "07506", "districtid": null, "end_grade": "17", "enrollment": 436.0, "fid": 670, "ft_teacher": 53, "globalid": null, "latitude": 37.79066, "level_": "2", "level_clean": null, "longitude": -122.445351, "naics_code": "611110", "naics_desc": "ELEMENTARY AND SECONDARY SCHOOLS", "name": "SAN FRANCISCO UNIVERSITY HIGH SCHOOL", "ncesid": "00083509", "population": 489, "shelter_id": "NOT AVAILABLE", "source": "https://nces.ed.gov/surveys/pss/privateschoolsearch/school_list.asp?SchoolID=00083509", "source_dat": "1706659200000", "st_grade": "14", "state": "CA", "status": "1", "telephone": "(415) 447-3100", "type": "1", "val_date": "1262131200000", "val_method": "IMAGERY/OTHER", "website": "NOT AVAILABLE", "zip": "94115", "zip4": "1022", "school_id": 29 }, "geometry": { "type": "Point", "coordinates": [ -13630554.123362431302667, 4549895.154702129773796 ] } },
{ "type": "Feature", "properties": { "address": "2120 BROADWAY ST", "city": "SAN FRANCISCO", "country": "USA", "county": "SAN FRANCISCO", "countyfips": "06075", "districtid": null, "end_grade": "13", "enrollment": 435.0, "fid": 673, "ft_teacher": 41, "globalid": null, "latitude": 37.794912, "level_": "1", "level_clean": null, "longitude": -122.4325241, "naics_code": "611110", "naics_desc": "ELEMENTARY AND SECONDARY SCHOOLS", "name": "HAMLIN SCHOOL", "ncesid": "00083553", "population": 476, "shelter_id": "NOT AVAILABLE", "source": "https://nces.ed.gov/surveys/pss/privateschoolsearch/school_list.asp?SchoolID=00083553", "source_dat": "1706659200000", "st_grade": "3", "state": "CA", "status": "1", "telephone": "(415) 674-5428", "type": "1", "val_date": "1710374400000", "val_method": "IMAGERY/OTHER", "website": "NOT AVAILABLE", "zip": "94115", "zip4": "1396", "school_id": 30 }, "geometry": { "type": "Point", "coordinates": [ -13629126.235087670385838, 4550494.133198061957955 ] } },
{ "type": "Feature", "properties": { "address": "2355 LAKE ST", "city": "SAN FRANCISCO", "country": "USA", "county": "SAN FRANCISCO", "countyfips": "07506", "districtid": null, "end_grade": "13", "enrollment": 80.0, "fid": 713, "ft_teacher": 11, "globalid": null, "latitude": 37.7855, "level_": "1", "level_clean": null, "longitude": -122.484951, "naics_code": "611110", "naics_desc": "ELEMENTARY AND SECONDARY SCHOOLS", "name": "KITTREDGE SCHOOL", "ncesid": "00087569", "population": 91, "shelter_id": "NOT AVAILABLE", "source": "https://nces.ed.gov/surveys/pss/privateschoolsearch/school_list.asp?SchoolID=00087569", "source_dat": "1706659200000", "st_grade": "3", "state": "CA", "status": "1", "telephone": "(415) 750-8390", "type": "1", "val_date": "1262131200000", "val_method": "IMAGERY/OTHER", "website": "NOT AVAILABLE", "zip": "94121", "zip4": "1228", "school_id": 31 }, "geometry": { "type": "Point", "coordinates": [ -13634962.375157795846462, 4549168.315087648108602 ] } },
{ "type": "Feature", "properties": { "address": "1801 VICENTE ST", "city": "SAN FRANCISCO", "country": "USA", "county": "SAN FRANCISCO", "countyfips": "07506", "districtid": null, "end_grade": "17", "enrollment": 28.0, "fid": 717, "ft_teacher": 3, "globalid": null, "latitude": 37.73798, "level_": "3", "level_clean": null, "longitude": -122.486261, "naics_code": "611110", "naics_desc": "ELEMENTARY AND SECONDARY SCHOOLS", "name": "EDGEWOOD CENTER FOR CHILDREN & FAMILIES", "ncesid": "00087944", "population": 31, "shelter_id": "NOT AVAILABLE", "source": "https://nces.ed.gov/surveys/pss/privateschoolsearch/school_list.asp?SchoolID=00087944", "source_dat": "1706659200000", "st_grade": "10", "state": "CA", "status": "1", "telephone": "(415) 681-3211", "type": "4", "val_date": "1655856000000", "val_method": "IMAGERY/OTHER", "website": "NOT AVAILABLE", "zip": "94116", "zip4": "2995", "school_id": 32 }, "geometry": { "type": "Point", "coordinates": [ -13635108.203708147630095, 4542477.013999889604747 ] } },
{ "type": "Feature", "properties": { "address": "334 28TH AVE", "city": "SAN FRANCISCO", "country": "USA", "county": "SAN FRANCISCO", "countyfips": "06075", "districtid": null, "end_grade": "4", "enrollment": 25.0, "fid": 727, "ft_teacher": 17, "globalid": null, "latitude": 37.7830424, "level_": "1", "level_clean": null, "longitude": -122.4879631, "naics_code": "611110", "naics_desc": "ELEMENTARY AND SECONDARY SCHOOLS", "name": "MOTHER GOOSE SCHOOL", "ncesid": "00088799", "population": 42, "shelter_id": "NOT AVAILABLE", "source": "https://nces.ed.gov/surveys/pss/privateschoolsearch/school_list.asp?SchoolID=00088799", "source_dat": "1706659200000", "st_grade": "2", "state": "CA", "status": "1", "telephone": "(415) 221-6133", "type": "7", "val_date": "1710460800000", "val_method": "IMAGERY/OTHER", "website": "NOT AVAILABLE", "zip": "94121", "zip4": "1804", "school_id": 33 }, "geometry": { "type": "Point", "coordinates": [ -13635297.684926243498921, 4548822.151578582823277 ] } },
{ "type": "Feature", "properties": { "address": "3839 WASHINGTON ST", "city": "SAN FRANCISCO", "country": "USA", "county": "SAN FRANCISCO", "countyfips": "07506", "districtid": null, "end_grade": "13", "enrollment": 217.0, "fid": 735, "ft_teacher": 23, "globalid": null, "latitude": 37.78858, "level_": "1", "level_clean": null, "longitude": -122.456061, "naics_code": "611110", "naics_desc": "ELEMENTARY AND SECONDARY SCHOOLS", "name": "PRESIDIO HILL SCHOOL", "ncesid": "00089817", "population": 240, "shelter_id": "NOT AVAILABLE", "source": "https://nces.ed.gov/surveys/pss/privateschoolsearch/school_list.asp?SchoolID=00089817", "source_dat": "1706659200000", "st_grade": "3", "state": "CA", "status": "1", "telephone": "(415) 751-9318", "type": "1", "val_date": "1262131200000", "val_method": "IMAGERY/OTHER", "website": "NOT AVAILABLE", "zip": "94118", "zip4": "1612", "school_id": 34 }, "geometry": { "type": "Point", "coordinates": [ -13631746.355027237907052, 4549602.158931161276996 ] } },
{ "type": "Feature", "properties": { "address": "1387 VALENCIA ST", "city": "SAN FRANCISCO", "country": "USA", "county": "SAN FRANCISCO", "countyfips": "07506", "districtid": null, "end_grade": "13", "enrollment": 190.0, "fid": 745, "ft_teacher": 19, "globalid": null, "latitude": 37.750897, "level_": "1", "level_clean": null, "longitude": -122.420301, "naics_code": "611110", "naics_desc": "ELEMENTARY AND SECONDARY SCHOOLS", "name": "SYNERGY SCHOOL", "ncesid": "00090979", "population": 209, "shelter_id": "NOT AVAILABLE", "source": "https://nces.ed.gov/surveys/pss/privateschoolsearch/school_list.asp?SchoolID=00090979", "source_dat": "1706659200000", "st_grade": "3", "state": "CA", "status": "1", "telephone": "(415) 567-6177", "type": "1", "val_date": "1262131200000", "val_method": "IMAGERY/OTHER", "website": "NOT AVAILABLE", "zip": "94110", "zip4": "3714", "school_id": 35 }, "geometry": { "type": "Point", "coordinates": [ -13627765.570067165419459, 4544295.434146427549422 ] } },
{ "type": "Feature", "properties": { "address": "1563 PAGE ST", "city": "SAN FRANCISCO", "country": "USA", "county": "SAN FRANCISCO", "countyfips": "07506", "districtid": null, "end_grade": "17", "enrollment": 425.0, "fid": 749, "ft_teacher": 46, "globalid": null, "latitude": 37.77076, "level_": "2", "level_clean": null, "longitude": -122.446301, "naics_code": "611110", "naics_desc": "ELEMENTARY AND SECONDARY SCHOOLS", "name": "URBAN SCHOOL OF SAN FRANCISCO", "ncesid": "00091418", "population": 471, "shelter_id": "NOT AVAILABLE", "source": "https://nces.ed.gov/surveys/pss/privateschoolsearch/school_list.asp?SchoolID=00091418", "source_dat": "1706659200000", "st_grade": "14", "state": "CA", "status": "1", "telephone": "(415) 626-2616", "type": "1", "val_date": "1262131200000", "val_method": "IMAGERY/OTHER", "website": "NOT AVAILABLE", "zip": "94117", "zip4": "2017", "school_id": 36 }, "geometry": { "type": "Point", "coordinates": [ -13630659.876850040629506, 4547092.312653600238264 ] } },
{ "type": "Feature", "properties": { "address": "2521 SCOTT ST", "city": "SAN FRANCISCO", "country": "USA", "county": "SAN FRANCISCO", "countyfips": "07506", "districtid": null, "end_grade": "13", "enrollment": 26.0, "fid": 764, "ft_teacher": 4, "globalid": null, "latitude": 37.79332, "level_": "1", "level_clean": null, "longitude": -122.440111, "naics_code": "611110", "naics_desc": "ELEMENTARY AND SECONDARY SCHOOLS", "name": "HILLWOOD ACADEMIC DAY SCHOOL", "ncesid": "00092681", "population": 30, "shelter_id": "NOT AVAILABLE", "source": "https://nces.ed.gov/surveys/pss/privateschoolsearch/school_list.asp?SchoolID=00092681", "source_dat": "1706659200000", "st_grade": "3", "state": "CA", "status": "1", "telephone": "(415) 931-0400", "type": "1", "val_date": "1275868800000", "val_method": "IMAGERY", "website": "NOT AVAILABLE", "zip": "94115", "zip4": "1196", "school_id": 37 }, "geometry": { "type": "Point", "coordinates": [ -13629970.809161039069295, 4550269.863052748143673 ] } },
{ "type": "Feature", "properties": { "address": "655 BROTHERHOOD WAY", "city": "SAN FRANCISCO", "country": "USA", "county": "SAN FRANCISCO", "countyfips": "06075", "districtid": null, "end_grade": "13", "enrollment": 336.0, "fid": 772, "ft_teacher": 87, "globalid": null, "latitude": 37.713367, "level_": "1", "level_clean": null, "longitude": -122.4759608, "naics_code": "611110", "naics_desc": "ELEMENTARY AND SECONDARY SCHOOLS", "name": "THE BRANDEIS SCHOOL OF SAN FRANCISCO", "ncesid": "00093539", "population": 423, "shelter_id": "NOT AVAILABLE", "source": "https://nces.ed.gov/surveys/pss/privateschoolsearch/school_list.asp?SchoolID=00093539", "source_dat": "1706659200000", "st_grade": "3", "state": "CA", "status": "1", "telephone": "(415) 406-1035", "type": "1", "val_date": "1710892800000", "val_method": "IMAGERY/OTHER", "website": "NOT AVAILABLE", "zip": "94132", "zip4": "2901", "school_id": 38 }, "geometry": { "type": "Point", "coordinates": [ -13633961.588409386575222, 4539012.941003799438477 ] } },
{ "type": "Feature", "properties": { "address": "66 GENEVA AVE", "city": "SAN FRANCISCO", "country": "USA", "county": "SAN FRANCISCO", "countyfips": "07506", "districtid": null, "end_grade": "13", "enrollment": 10.0, "fid": 815, "ft_teacher": 2, "globalid": null, "latitude": 37.72171, "level_": "1", "level_clean": null, "longitude": -122.451191, "naics_code": "611110", "naics_desc": "ELEMENTARY AND SECONDARY SCHOOLS", "name": "SAN FRANCISCO ADVENTIST SCHOOL", "ncesid": "00096052", "population": 12, "shelter_id": "NOT AVAILABLE", "source": "https://nces.ed.gov/surveys/pss/privateschoolsearch/school_list.asp?SchoolID=00096052", "source_dat": "1706659200000", "st_grade": "3", "state": "CA", "status": "1", "telephone": "(415) 585-5550", "type": "1", "val_date": "1262131200000", "val_method": "IMAGERY/OTHER", "website": "NOT AVAILABLE", "zip": "94112", "zip4": "2304", "school_id": 39 }, "geometry": { "type": "Point", "coordinates": [ -13631204.229134822264314, 4540187.019094676710665 ] } },
{ "type": "Feature", "properties": { "address": "750 25TH AVE.", "city": "SAN FRANCISCO", "country": "USA", "county": "SAN FRANCISCO", "countyfips": "06075", "districtid": "0600139", "end_grade": "12", "enrollment": 0.0, "fid": 6201, "ft_teacher": -999, "globalid": "8439481f-296b-431f-9c54-130a7c56f8b5", "latitude": 37.7760981, "level_": "HIGH", "level_clean": "High", "longitude": -122.4065245, "naics_code": "611110", "naics_desc": "ELEMENTARY AND SECONDARY SCHOOLS", "name": "SAN FRANCISCO COUNTY ROP", "ncesid": "060013911410", "population": 0, "shelter_id": "NOT AVAILABLE", "source": "https://nces.ed.gov/ccd/schoolsearch/school_list.asp?schoolid=060013911410", "source_dat": "Wed, 31 Jan 2024 00:00:00 GMT", "st_grade": "10", "state": "CA", "status": "1", "telephone": "(415) 379-7764", "type": "3", "val_date": "Mon, 30 Oct 2017 00:00:00 GMT", "val_method": "IMAGERY", "website": "NOT AVAILABLE", "zip": "94121", "zip4": "3612", "school_id": 40 }, "geometry": { "type": "Point", "coordinates": [ -122.406524547169951, 37.776098057978984 ] } },
{ "type": "Feature", "properties": { "address": "350 SENECA AVE.", "city": "SAN FRANCISCO", "country": "USA", "county": "SAN FRANCISCO", "countyfips": "06075", "districtid": "0601491", "end_grade": "M", "enrollment": null, "fid": 6434, "ft_teacher": -999, "globalid": "38c90f47-1f82-43ea-86a8-e8f8de6bca58", "latitude": 37.721727, "level_": "NOT REPORTED", "level_clean": null, "longitude": -122.4447083, "naics_code": "611110", "naics_desc": "ELEMENTARY AND SECONDARY SCHOOLS", "name": "LEADERSHIP HIGH", "ncesid": "060149107354", "population": -999, "shelter_id": "NOT AVAILABLE", "source": "https://nces.ed.gov/ccd/schoolsearch/school_list.asp?schoolid=060149107354", "source_dat": "Wed, 31 Jan 2024 00:00:00 GMT", "st_grade": "M", "state": "CA", "status": "2", "telephone": "(415) 841-8910", "type": "1", "val_date": "Thu, 12 May 2022 00:00:00 GMT", "val_method": "IMAGERY/OTHER", "website": "http://www.leadershiphigh.org", "zip": "94112", "zip4": "3248", "school_id": 41 }, "geometry": { "type": "Point", "coordinates": [ -122.44470831243882, 37.721726959031962 ] } },
{ "type": "Feature", "properties": { "address": "948 HOLLISTER", "city": "SAN FRANCISCO", "country": "USA", "county": "SAN FRANCISCO", "countyfips": "06075", "districtid": "0601498", "end_grade": "04", "enrollment": 161.0, "fid": 6440, "ft_teacher": 10, "globalid": "71ba6d68-ad8d-4654-8fce-77cf2343c57d", "latitude": 37.7344682, "level_": "ELEMENTARY", "level_clean": "Elementary", "longitude": -122.38075, "naics_code": "611110", "naics_desc": "ELEMENTARY AND SECONDARY SCHOOLS", "name": "KIPP BAYVIEW ELEMENTARY", "ncesid": "060149814322", "population": 171, "shelter_id": "NOT AVAILABLE", "source": "https://nces.ed.gov/ccd/schoolsearch/school_list.asp?schoolid=060149814322", "source_dat": "Wed, 31 Jan 2024 00:00:00 GMT", "st_grade": "KG", "state": "CA", "status": "1", "telephone": "(415) 404-2602", "type": "1", "val_date": "Thu, 12 May 2022 00:00:00 GMT", "val_method": "IMAGERY/OTHER", "website": "http://bayviewelementary.kippnorcal.org/", "zip": "94124", "zip4": "3710", "school_id": 42 }, "geometry": { "type": "Point", "coordinates": [ -122.380750033087494, 37.734468223729642 ] } },
{ "type": "Feature", "properties": { "address": "70 OAK GROVE", "city": "SAN FRANCISCO", "country": "USA", "county": "SAN FRANCISCO", "countyfips": "06075", "districtid": "0601583", "end_grade": "M", "enrollment": null, "fid": 6517, "ft_teacher": -999, "globalid": "5b0e60c1-78e5-4fe7-af1e-ac1c31056f6d", "latitude": 37.7771626, "level_": "NOT REPORTED", "level_clean": null, "longitude": -122.4021339, "naics_code": "611110", "naics_desc": "ELEMENTARY AND SECONDARY SCHOOLS", "name": "FIVE KEYS ADULT SCHOOL (SF SHERIFF'S)", "ncesid": "060158312373", "population": -999, "shelter_id": "NOT AVAILABLE", "source": "https://nces.ed.gov/ccd/schoolsearch/school_list.asp?schoolid=060158312373", "source_dat": "Wed, 31 Jan 2024 00:00:00 GMT", "st_grade": "M", "state": "CA", "status": "2", "telephone": "(415) 734-3310", "type": "1", "val_date": "Thu, 12 May 2022 00:00:00 GMT", "val_method": "IMAGERY/OTHER", "website": "http://www.fivekeyscharter.org", "zip": "94107", "zip4": "1019", "school_id": 43 }, "geometry": { "type": "Point", "coordinates": [ -122.402133946324412, 37.77716256390125 ] } },
{ "type": "Feature", "properties": { "address": "1430 SCOTT ST. THIRD FL.", "city": "SAN FRANCISCO", "country": "USA", "county": "SAN FRANCISCO", "countyfips": "06075", "districtid": "0601626", "end_grade": "08", "enrollment": 278.0, "fid": 6586, "ft_teacher": 15, "globalid": "4608bea8-95e9-444d-97cf-698f2a79f2be", "latitude": 37.7834903, "level_": "MIDDLE", "level_clean": "Middle", "longitude": -122.4367564, "naics_code": "611110", "naics_desc": "ELEMENTARY AND SECONDARY SCHOOLS", "name": "KIPP SAN FRANCISCO BAY ACADEMY", "ncesid": "060162611255", "population": 293, "shelter_id": "NOT AVAILABLE", "source": "https://nces.ed.gov/ccd/schoolsearch/school_list.asp?schoolid=060162611255", "source_dat": "Wed, 31 Jan 2024 00:00:00 GMT", "st_grade": "05", "state": "CA", "status": "1", "telephone": "(415) 440-4306", "type": "1", "val_date": "Thu, 12 May 2022 00:00:00 GMT", "val_method": "IMAGERY/OTHER", "website": "http://sfbay.kippnorcal.org/", "zip": "94115", "zip4": "3510", "school_id": 44 }, "geometry": { "type": "Point", "coordinates": [ -122.436756434961737, 37.783490296340204 ] } },
{ "type": "Feature", "properties": { "address": "1512 GOLDEN GATE AVE.", "city": "SAN FRANCISCO", "country": "USA", "county": "SAN FRANCISCO", "countyfips": "06075", "districtid": "0601861", "end_grade": "08", "enrollment": 302.0, "fid": 6837, "ft_teacher": 14, "globalid": "f30813f3-00eb-4a89-9124-05c510233615", "latitude": 37.779419, "level_": "MIDDLE", "level_clean": "Middle", "longitude": -122.4359417, "naics_code": "611110", "naics_desc": "ELEMENTARY AND SECONDARY SCHOOLS", "name": "GATEWAY MIDDLE", "ncesid": "060186112800", "population": 316, "shelter_id": "NOT AVAILABLE", "source": "https://nces.ed.gov/ccd/schoolsearch/school_list.asp?schoolid=060186112800", "source_dat": "Wed, 31 Jan 2024 00:00:00 GMT", "st_grade": "06", "state": "CA", "status": "1", "telephone": "(415) 922-1001", "type": "1", "val_date": "Thu, 12 May 2022 00:00:00 GMT", "val_method": "IMAGERY/OTHER", "website": "http://www.gatewaymiddle.org", "zip": "94115", "zip4": "4515", "school_id": 45 }, "geometry": { "type": "Point", "coordinates": [ -122.435941743616539, 37.779419033061984 ] } },
{ "type": "Feature", "properties": { "address": "1195 HUDSON AVE.", "city": "SAN FRANCISCO", "country": "USA", "county": "SAN FRANCISCO", "countyfips": "06075", "districtid": "0601957", "end_grade": "12", "enrollment": 316.0, "fid": 6940, "ft_teacher": 25, "globalid": "0d75f9e6-c868-4c6e-a6e6-4989bc8d5e5c", "latitude": 37.7322903, "level_": "HIGH", "level_clean": "High", "longitude": -122.382487, "naics_code": "611110", "naics_desc": "ELEMENTARY AND SECONDARY SCHOOLS", "name": "KIPP SAN FRANCISCO COLLEGE PREPARATORY", "ncesid": "060195713410", "population": 341, "shelter_id": "NOT AVAILABLE", "source": "https://nces.ed.gov/ccd/schoolsearch/school_list.asp?schoolid=060195713410", "source_dat": "Wed, 31 Jan 2024 00:00:00 GMT", "st_grade": "09", "state": "CA", "status": "1", "telephone": "(415) 643-6951", "type": "1", "val_date": "Thu, 12 May 2022 00:00:00 GMT", "val_method": "IMAGERY/OTHER", "website": "http://sfcollegeprep.kippnorcal.org/", "zip": "94124", "zip4": "2488", "school_id": 46 }, "geometry": { "type": "Point", "coordinates": [ -122.382486996278075, 37.732290345423181 ] } },
{ "type": "Feature", "properties": { "address": "3531 22ND ST.", "city": "SAN FRANCISCO", "country": "USA", "county": "SAN FRANCISCO", "countyfips": "06075", "districtid": "0602054", "end_grade": "08", "enrollment": 590.0, "fid": 7030, "ft_teacher": -999, "globalid": "794d7ebc-b157-455f-abde-6b7ddc871c64", "latitude": 37.754654, "level_": "ELEMENTARY", "level_clean": "Elementary", "longitude": -122.4263377, "naics_code": "611110", "naics_desc": "ELEMENTARY AND SECONDARY SCHOOLS", "name": "THOMAS EDISON CHARTER ACADEMY", "ncesid": "060205410388", "population": 590, "shelter_id": "NOT AVAILABLE", "source": "https://nces.ed.gov/ccd/schoolsearch/school_list.asp?schoolid=060205410388", "source_dat": "Wed, 31 Jan 2024 00:00:00 GMT", "st_grade": "KG", "state": "CA", "status": "1", "telephone": "(415) 970-3330", "type": "1", "val_date": "Thu, 12 May 2022 00:00:00 GMT", "val_method": "IMAGERY/OTHER", "website": "http://www.teca-sf.org", "zip": "94114", "zip4": "3405", "school_id": 47 }, "geometry": { "type": "Point", "coordinates": [ -122.426337685635474, 37.754653964808625 ] } },
{ "type": "Feature", "properties": { "address": "350 SENECA AVE.", "city": "SAN FRANCISCO", "country": "USA", "county": "SAN FRANCISCO", "countyfips": "06075", "districtid": "0602103", "end_grade": "12", "enrollment": 473.0, "fid": 7082, "ft_teacher": 21, "globalid": "976232fd-0451-41e4-812d-e71283d5388f", "latitude": 37.7193975, "level_": "HIGH", "level_clean": "High", "longitude": -122.4252899, "naics_code": "611110", "naics_desc": "ELEMENTARY AND SECONDARY SCHOOLS", "name": "CITY ARTS & LEADERSHIP ACADEMY", "ncesid": "060210311408", "population": 494, "shelter_id": "NOT AVAILABLE", "source": "https://nces.ed.gov/ccd/schoolsearch/school_list.asp?schoolid=060210311408", "source_dat": "Wed, 31 Jan 2024 00:00:00 GMT", "st_grade": "09", "state": "CA", "status": "1", "telephone": "(415) 841-2200", "type": "1", "val_date": "Thu, 12 May 2022 00:00:00 GMT", "val_method": "IMAGERY/OTHER", "website": "http://www.es-cat.org", "zip": "94112", "zip4": "3248", "school_id": 48 }, "geometry": { "type": "Point", "coordinates": [ -122.425289941277612, 37.719397517981093 ] } },
{ "type": "Feature", "properties": { "address": "70 OAK GROVE", "city": "SAN FRANCISCO", "country": "USA", "county": "SAN FRANCISCO", "countyfips": "06075", "districtid": "0602118", "end_grade": "12", "enrollment": 3019.0, "fid": 7095, "ft_teacher": 56, "globalid": "b3131c23-ca14-4d67-a8b9-838725b27d37", "latitude": 37.7771027, "level_": "HIGH", "level_clean": "High", "longitude": -122.4022522, "naics_code": "611110", "naics_desc": "ELEMENTARY AND SECONDARY SCHOOLS", "name": "FIVE KEYS INDEPENDENCE HS (SF SHERIFF'S)", "ncesid": "060211812256", "population": 3075, "shelter_id": "NOT AVAILABLE", "source": "https://nces.ed.gov/ccd/schoolsearch/school_list.asp?schoolid=060211812256", "source_dat": "Wed, 31 Jan 2024 00:00:00 GMT", "st_grade": "09", "state": "CA", "status": "1", "telephone": "(415) 734-3310", "type": "1", "val_date": "Thu, 12 May 2022 00:00:00 GMT", "val_method": "IMAGERY/OTHER", "website": "http://www.fivekeyscharter.org", "zip": "94107", "zip4": "1019", "school_id": 49 }, "geometry": { "type": "Point", "coordinates": [ -122.402252174798221, 37.77710273200551 ] } },
{ "type": "Feature", "properties": { "address": "1601 TURK ST.", "city": "SAN FRANCISCO", "country": "USA", "county": "SAN FRANCISCO", "countyfips": "06075", "districtid": "0602155", "end_grade": "08", "enrollment": 441.0, "fid": 7127, "ft_teacher": 24, "globalid": "4481bc6c-dbfd-406a-9dbd-f378048ad83e", "latitude": 37.7798114, "level_": "ELEMENTARY", "level_clean": "Elementary", "longitude": -122.4360438, "naics_code": "611110", "naics_desc": "ELEMENTARY AND SECONDARY SCHOOLS", "name": "CREATIVE ARTS CHARTER", "ncesid": "060215503982", "population": 465, "shelter_id": "NOT AVAILABLE", "source": "https://nces.ed.gov/ccd/schoolsearch/school_list.asp?schoolid=060215503982", "source_dat": "Wed, 31 Jan 2024 00:00:00 GMT", "st_grade": "KG", "state": "CA", "status": "1", "telephone": "(415) 749-3509", "type": "1", "val_date": "Thu, 12 May 2022 00:00:00 GMT", "val_method": "IMAGERY/OTHER", "website": "http://www.creativeartscharter.org", "zip": "94115", "zip4": "4527", "school_id": 50 }, "geometry": { "type": "Point", "coordinates": [ -122.436043812171803, 37.779811374895083 ] } },
{ "type": "Feature", "properties": { "address": "1060 KEY AVE.", "city": "SAN FRANCISCO", "country": "USA", "county": "SAN FRANCISCO", "countyfips": "06075", "districtid": "0602172", "end_grade": "08", "enrollment": 199.0, "fid": 7152, "ft_teacher": 12, "globalid": "19fab5b6-e05c-4a7d-964e-f3da8c2d1ce3", "latitude": 37.7196374, "level_": "MIDDLE", "level_clean": "Middle", "longitude": -122.396591, "naics_code": "611110", "naics_desc": "ELEMENTARY AND SECONDARY SCHOOLS", "name": "KIPP BAYVIEW ACADEMY", "ncesid": "060217211256", "population": 211, "shelter_id": "NOT AVAILABLE", "source": "https://nces.ed.gov/ccd/schoolsearch/school_list.asp?schoolid=060217211256", "source_dat": "Wed, 31 Jan 2024 00:00:00 GMT", "st_grade": "05", "state": "CA", "status": "1", "telephone": "(415) 467-2522", "type": "1", "val_date": "Thu, 12 May 2022 00:00:00 GMT", "val_method": "IMAGERY/OTHER", "website": "http://sfbay.kippnorcal.org/", "zip": "94124", "zip4": "3563", "school_id": 51 }, "geometry": { "type": "Point", "coordinates": [ -122.396590982987064, 37.719637419331463 ] } },
{ "type": "Feature", "properties": { "address": "1050 YORK ST.", "city": "SAN FRANCISCO", "country": "USA", "county": "SAN FRANCISCO", "countyfips": "06075", "districtid": "0602236", "end_grade": "08", "enrollment": 469.0, "fid": 7213, "ft_teacher": 20, "globalid": "6aeb6e06-7d17-4728-90cd-f2adcd62e809", "latitude": 37.7552191, "level_": "ELEMENTARY", "level_clean": "Elementary", "longitude": -122.4087113, "naics_code": "611110", "naics_desc": "ELEMENTARY AND SECONDARY SCHOOLS", "name": "MISSION PREPARATORY", "ncesid": "060223612768", "population": 489, "shelter_id": "NOT AVAILABLE", "source": "https://nces.ed.gov/ccd/schoolsearch/school_list.asp?schoolid=060223612768", "source_dat": "Wed, 31 Jan 2024 00:00:00 GMT", "st_grade": "KG", "state": "CA", "status": "1", "telephone": "(415) 508-9626", "type": "1", "val_date": "Thu, 12 May 2022 00:00:00 GMT", "val_method": "IMAGERY/OTHER", "website": "http://www.missionpreparatory.org", "zip": "94110", "zip4": "3420", "school_id": 52 }, "geometry": { "type": "Point", "coordinates": [ -122.408711272107908, 37.755219091587847 ] } },
{ "type": "Feature", "properties": { "address": "1430 SCOTT ST.", "city": "SAN FRANCISCO", "country": "USA", "county": "SAN FRANCISCO", "countyfips": "06075", "districtid": "0602426", "end_grade": "12", "enrollment": 489.0, "fid": 7410, "ft_teacher": 28, "globalid": "3d8515b5-a1bf-49fe-9a77-a6805219932b", "latitude": 37.7835056, "level_": "HIGH", "level_clean": "High", "longitude": -122.4367267, "naics_code": "611110", "naics_desc": "ELEMENTARY AND SECONDARY SCHOOLS", "name": "GATEWAY HIGH", "ncesid": "060242607725", "population": 517, "shelter_id": "NOT AVAILABLE", "source": "https://nces.ed.gov/ccd/schoolsearch/school_list.asp?schoolid=060242607725", "source_dat": "Wed, 31 Jan 2024 00:00:00 GMT", "st_grade": "09", "state": "CA", "status": "1", "telephone": "(415) 749-3600", "type": "1", "val_date": "Thu, 12 May 2022 00:00:00 GMT", "val_method": "IMAGERY/OTHER", "website": "http://www.gatewayhigh.org", "zip": "94115", "zip4": "3510", "school_id": 53 }, "geometry": { "type": "Point", "coordinates": [ -122.436726688086509, 37.783505609096601 ] } },
{ "type": "Feature", "properties": { "address": "940 FILBERT ST", "city": "SAN FRANCISCO", "country": "USA", "county": "SAN FRANCISCO", "countyfips": "06075", "districtid": "0602439", "end_grade": "08", "enrollment": 439.0, "fid": 7447, "ft_teacher": 22, "globalid": "a3ac2afe-660a-4348-9059-ba6bcea39e5d", "latitude": 37.7616524, "level_": "ELEMENTARY", "level_clean": "Elementary", "longitude": -122.4006309, "naics_code": "611110", "naics_desc": "ELEMENTARY AND SECONDARY SCHOOLS", "name": "THE NEW SCHOOL OF SAN FRANCISCO", "ncesid": "060243913939", "population": 461, "shelter_id": "NOT AVAILABLE", "source": "https://nces.ed.gov/ccd/schoolsearch/school_list.asp?schoolid=060243913939", "source_dat": "Wed, 31 Jan 2024 00:00:00 GMT", "st_grade": "KG", "state": "CA", "status": "1", "telephone": "(415) 401-6063", "type": "1", "val_date": "Thu, 12 May 2022 00:00:00 GMT", "val_method": "IMAGERY/OTHER", "website": "http://www.newschoolsf.org", "zip": "94133", "zip4": "2727", "school_id": 54 }, "geometry": { "type": "Point", "coordinates": [ -122.400630931871987, 37.761652404435004 ] } },
{ "type": "Feature", "properties": { "address": "651 EIGHTH ST. BLDG. 229 TREASURE ISLAND", "city": "SAN FRANCISCO", "country": "USA", "county": "SAN FRANCISCO", "countyfips": "06075", "districtid": "0602554", "end_grade": "12", "enrollment": 41.0, "fid": 7556, "ft_teacher": 4, "globalid": "cb62d6f6-d372-4ed0-8c2f-acdaf89c551d", "latitude": 37.8249469, "level_": "HIGH", "level_clean": "High", "longitude": -122.3692872, "naics_code": "611110", "naics_desc": "ELEMENTARY AND SECONDARY SCHOOLS", "name": "LIFE LEARNING ACADEMY CHARTER", "ncesid": "060255407721", "population": 45, "shelter_id": "NOT AVAILABLE", "source": "https://nces.ed.gov/ccd/schoolsearch/school_list.asp?schoolid=060255407721", "source_dat": "Wed, 31 Jan 2024 00:00:00 GMT", "st_grade": "09", "state": "CA", "status": "1", "telephone": "(415) 397-8957", "type": "1", "val_date": "Wed, 28 Feb 2024 00:00:00 GMT", "val_method": "IMAGERY/OTHER", "website": "http://www.llasf.org", "zip": "94130", "zip4": "1901", "school_id": 55 }, "geometry": { "type": "Point", "coordinates": [ -122.369287199644717, 37.824946899579793 ] } },
{ "type": "Feature", "properties": { "address": "555 PORTOLA DR.", "city": "SAN FRANCISCO", "country": "USA", "county": "SAN FRANCISCO", "countyfips": "06075", "districtid": "0634410", "end_grade": "12", "enrollment": 679.0, "fid": 14157, "ft_teacher": 35, "globalid": "d0364f2b-479c-48fd-95bd-150deeda1ad8", "latitude": 37.7450667, "level_": "HIGH", "level_clean": "High", "longitude": -122.4494926, "naics_code": "611110", "naics_desc": "ELEMENTARY AND SECONDARY SCHOOLS", "name": "ASAWA (RUTH) SF SCH OF THE ARTS A PUBLIC SCHOOL", "ncesid": "063441001276", "population": 714, "shelter_id": "NOT AVAILABLE", "source": "https://nces.ed.gov/ccd/schoolsearch/school_list.asp?schoolid=063441001276", "source_dat": "Wed, 31 Jan 2024 00:00:00 GMT", "st_grade": "09", "state": "CA", "status": "1", "telephone": "(415) 695-5700", "type": "4", "val_date": "Tue, 08 Jun 2010 00:00:00 GMT", "val_method": "IMAGERY", "website": "NOT AVAILABLE", "zip": "94131", "zip4": "1616", "school_id": 56 }, "geometry": { "type": "Point", "coordinates": [ -122.449492641872084, 37.745066659398802 ] } },
{ "type": "Feature", "properties": { "address": "2055 SILVER AVE.", "city": "SAN FRANCISCO", "country": "USA", "county": "SAN FRANCISCO", "countyfips": "06075", "districtid": "0634410", "end_grade": "08", "enrollment": 257.0, "fid": 14158, "ft_teacher": 18, "globalid": "6f1e4ea9-3ce1-4f10-825a-62c936ea7f5a", "latitude": 37.7364804, "level_": "MIDDLE", "level_clean": "Middle", "longitude": -122.4000981, "naics_code": "611110", "naics_desc": "ELEMENTARY AND SECONDARY SCHOOLS", "name": "BROWN JR. (WILLIE L) MIDDLE", "ncesid": "063441002774", "population": 275, "shelter_id": "NOT AVAILABLE", "source": "https://nces.ed.gov/ccd/schoolsearch/school_list.asp?schoolid=063441002774", "source_dat": "Wed, 31 Jan 2024 00:00:00 GMT", "st_grade": "06", "state": "CA", "status": "1", "telephone": "(415) 642-8901", "type": "1", "val_date": "Mon, 07 Jun 2010 00:00:00 GMT", "val_method": "IMAGERY", "website": "NOT AVAILABLE", "zip": "94122", "zip4": "2032", "school_id": 57 }, "geometry": { "type": "Point", "coordinates": [ -122.40009810334503, 37.736480420834816 ] } },
{ "type": "Feature", "properties": { "address": "45 CONKLING ST.", "city": "SAN FRANCISCO", "country": "USA", "county": "SAN FRANCISCO", "countyfips": "06075", "districtid": "0634410", "end_grade": "12", "enrollment": 457.0, "fid": 14159, "ft_teacher": 30, "globalid": "486a9a33-7c27-4c09-8d69-e311637e346a", "latitude": 37.7359965, "level_": "HIGH", "level_clean": "High", "longitude": -122.4017209, "naics_code": "611110", "naics_desc": "ELEMENTARY AND SECONDARY SCHOOLS", "name": "MARSHALL (THURGOOD) HIGH", "ncesid": "063441003976", "population": 487, "shelter_id": "NOT AVAILABLE", "source": "https://nces.ed.gov/ccd/schoolsearch/school_list.asp?schoolid=063441003976", "source_dat": "Wed, 31 Jan 2024 00:00:00 GMT", "st_grade": "09", "state": "CA", "status": "1", "telephone": "(415) 695-5612", "type": "1", "val_date": "Mon, 07 Jun 2010 00:00:00 GMT", "val_method": "IMAGERY", "website": "NOT AVAILABLE", "zip": "94124", "zip4": "1931", "school_id": 58 }, "geometry": { "type": "Point", "coordinates": [ -122.401720918285278, 37.735996466863512 ] } },
{ "type": "Feature", "properties": { "address": "1541 12TH AVE.", "city": "SAN FRANCISCO", "country": "USA", "county": "SAN FRANCISCO", "countyfips": "06075", "districtid": "0634410", "end_grade": "08", "enrollment": 586.0, "fid": 14160, "ft_teacher": 20, "globalid": "17d9e312-efc0-4003-9239-ac7d6e1a46a7", "latitude": 37.7590556, "level_": "ELEMENTARY", "level_clean": "Elementary", "longitude": -122.4694286, "naics_code": "611110", "naics_desc": "ELEMENTARY AND SECONDARY SCHOOLS", "name": "YU (ALICE FONG) ELEMENTARY", "ncesid": "063441005360", "population": 606, "shelter_id": "NOT AVAILABLE", "source": "https://nces.ed.gov/ccd/schoolsearch/school_list.asp?schoolid=063441005360", "source_dat": "Wed, 31 Jan 2024 00:00:00 GMT", "st_grade": "KG", "state": "CA", "status": "1", "telephone": "(415) 759-2764", "type": "1", "val_date": "Tue, 23 Feb 2016 00:00:00 GMT", "val_method": "IMAGERY", "website": "NOT AVAILABLE", "zip": "94122", "zip4": "3503", "school_id": 59 }, "geometry": { "type": "Point", "coordinates": [ -122.469428635823249, 37.759055641704521 ] } },
{ "type": "Feature", "properties": { "address": "350 BRD.WAY ST.", "city": "SAN FRANCISCO", "country": "USA", "county": "SAN FRANCISCO", "countyfips": "06075", "districtid": "0634410", "end_grade": "05", "enrollment": 260.0, "fid": 14161, "ft_teacher": 8, "globalid": "92d0ed5e-a087-4438-90fc-461e79632402", "latitude": 37.7986357, "level_": "ELEMENTARY", "level_clean": "Elementary", "longitude": -122.4030636, "naics_code": "611110", "naics_desc": "ELEMENTARY AND SECONDARY SCHOOLS", "name": "CHIN (JOHN YEHALL) ELEMENTARY", "ncesid": "063441005369", "population": 268, "shelter_id": "NOT AVAILABLE", "source": "https://nces.ed.gov/ccd/schoolsearch/school_list.asp?schoolid=063441005369", "source_dat": "Wed, 31 Jan 2024 00:00:00 GMT", "st_grade": "KG", "state": "CA", "status": "1", "telephone": "(415) 291-7946", "type": "1", "val_date": "Tue, 23 Feb 2016 00:00:00 GMT", "val_method": "IMAGERY/OTHER", "website": "NOT AVAILABLE", "zip": "94133", "zip4": "4503", "school_id": 60 }, "geometry": { "type": "Point", "coordinates": [ -122.403063562933013, 37.798635731254016 ] } },
{ "type": "Feature", "properties": { "address": "3151 ORTEGA ST.", "city": "SAN FRANCISCO", "country": "USA", "county": "SAN FRANCISCO", "countyfips": "06075", "districtid": "0634410", "end_grade": "08", "enrollment": 1192.0, "fid": 14162, "ft_teacher": 46, "globalid": "5e1b1ea7-d836-4453-ab1d-78b81d8c2e28", "latitude": 37.7508202, "level_": "MIDDLE", "level_clean": "Middle", "longitude": -122.4968334, "naics_code": "611110", "naics_desc": "ELEMENTARY AND SECONDARY SCHOOLS", "name": "GIANNINI (A.P.) MIDDLE", "ncesid": "063441005580", "population": 1238, "shelter_id": "10780995", "source": "https://nces.ed.gov/ccd/schoolsearch/school_list.asp?schoolid=063441005580", "source_dat": "Wed, 31 Jan 2024 00:00:00 GMT", "st_grade": "06", "state": "CA", "status": "1", "telephone": "(415) 759-2770", "type": "1", "val_date": "Mon, 07 Jun 2010 00:00:00 GMT", "val_method": "IMAGERY", "website": "NOT AVAILABLE", "zip": "94122", "zip4": "4051", "school_id": 61 }, "geometry": { "type": "Point", "coordinates": [ -122.496833374360577, 37.750820246657085 ] } },
{ "type": "Feature", "properties": { "address": "2162 24TH AVE.", "city": "SAN FRANCISCO", "country": "USA", "county": "SAN FRANCISCO", "countyfips": "06075", "districtid": "0634410", "end_grade": "12", "enrollment": 1997.0, "fid": 14163, "ft_teacher": 87, "globalid": "0ad36a13-5747-46cd-8c33-e0ac22495459", "latitude": 37.7463412, "level_": "HIGH", "level_clean": "High", "longitude": -122.48098, "naics_code": "611110", "naics_desc": "ELEMENTARY AND SECONDARY SCHOOLS", "name": "LINCOLN (ABRAHAM) HIGH", "ncesid": "063441005581", "population": 2084, "shelter_id": "NOT AVAILABLE", "source": "https://nces.ed.gov/ccd/schoolsearch/school_list.asp?schoolid=063441005581", "source_dat": "Wed, 31 Jan 2024 00:00:00 GMT", "st_grade": "09", "state": "CA", "status": "1", "telephone": "(415) 759-2700", "type": "1", "val_date": "Mon, 07 Jun 2010 00:00:00 GMT", "val_method": "IMAGERY", "website": "NOT AVAILABLE", "zip": "94116", "zip4": "1723", "school_id": 62 }, "geometry": { "type": "Point", "coordinates": [ -122.480980002125193, 37.746341157018826 ] } },
{ "type": "Feature", "properties": { "address": "250 23RD AVE.", "city": "SAN FRANCISCO", "country": "USA", "county": "SAN FRANCISCO", "countyfips": "06075", "districtid": "0634410", "end_grade": "05", "enrollment": 410.0, "fid": 14164, "ft_teacher": 19, "globalid": "d3e8a7a8-8652-4033-b384-7f3ee524ea29", "latitude": 37.7830717, "level_": "ELEMENTARY", "level_clean": "Elementary", "longitude": -122.4824845, "naics_code": "611110", "naics_desc": "ELEMENTARY AND SECONDARY SCHOOLS", "name": "ALAMO ELEMENTARY", "ncesid": "063441005582", "population": 429, "shelter_id": "NOT AVAILABLE", "source": "https://nces.ed.gov/ccd/schoolsearch/school_list.asp?schoolid=063441005582", "source_dat": "Wed, 31 Jan 2024 00:00:00 GMT", "st_grade": "KG", "state": "CA", "status": "1", "telephone": "(415) 750-8456", "type": "1", "val_date": "Tue, 23 Feb 2016 00:00:00 GMT", "val_method": "IMAGERY", "website": "NOT AVAILABLE", "zip": "94121", "zip4": "2009", "school_id": 63 }, "geometry": { "type": "Point", "coordinates": [ -122.4824844518959, 37.783071729376864 ] } },
{ "type": "Feature", "properties": { "address": "625 DOUGLAS ST.", "city": "SAN FRANCISCO", "country": "USA", "county": "SAN FRANCISCO", "countyfips": "06075", "districtid": "0634410", "end_grade": "05", "enrollment": 488.0, "fid": 14165, "ft_teacher": 22, "globalid": "02ed1237-d258-4028-93c8-27cd37566491", "latitude": 37.7537317, "level_": "ELEMENTARY", "level_clean": "Elementary", "longitude": -122.4385021, "naics_code": "611110", "naics_desc": "ELEMENTARY AND SECONDARY SCHOOLS", "name": "ALVARADO ELEMENTARY", "ncesid": "063441005583", "population": 510, "shelter_id": "NOT AVAILABLE", "source": "https://nces.ed.gov/ccd/schoolsearch/school_list.asp?schoolid=063441005583", "source_dat": "Wed, 31 Jan 2024 00:00:00 GMT", "st_grade": "KG", "state": "CA", "status": "1", "telephone": "(415) 695-5695", "type": "1", "val_date": "Tue, 08 Jun 2010 00:00:00 GMT", "val_method": "IMAGERY", "website": "NOT AVAILABLE", "zip": "94114", "zip4": "3140", "school_id": 64 }, "geometry": { "type": "Point", "coordinates": [ -122.438502102689924, 37.753731680372859 ] } },
{ "type": "Feature", "properties": { "address": "105 APTOS AVE.", "city": "SAN FRANCISCO", "country": "USA", "county": "SAN FRANCISCO", "countyfips": "06075", "districtid": "0634410", "end_grade": "08", "enrollment": 848.0, "fid": 14166, "ft_teacher": 37, "globalid": "5b6eb343-6753-4ef3-87f1-6c4eb0c9a65d", "latitude": 37.7297706, "level_": "MIDDLE", "level_clean": "Middle", "longitude": -122.4660513, "naics_code": "611110", "naics_desc": "ELEMENTARY AND SECONDARY SCHOOLS", "name": "APTOS MIDDLE", "ncesid": "063441005585", "population": 885, "shelter_id": "NOT AVAILABLE", "source": "https://nces.ed.gov/ccd/schoolsearch/school_list.asp?schoolid=063441005585", "source_dat": "Wed, 31 Jan 2024 00:00:00 GMT", "st_grade": "06", "state": "CA", "status": "1", "telephone": "(415) 469-4520", "type": "1", "val_date": "Tue, 23 Feb 2016 00:00:00 GMT", "val_method": "IMAGERY", "website": "NOT AVAILABLE", "zip": "94127", "zip4": "2520", "school_id": 65 }, "geometry": { "type": "Point", "coordinates": [ -122.466051272347897, 37.729770574552454 ] } },
{ "type": "Feature", "properties": { "address": "680 18TH AVE.", "city": "SAN FRANCISCO", "country": "USA", "county": "SAN FRANCISCO", "countyfips": "06075", "districtid": "0634410", "end_grade": "05", "enrollment": 361.0, "fid": 14167, "ft_teacher": 18, "globalid": "206c13b4-1a96-4401-b24d-892eea020da0", "latitude": 37.7752907, "level_": "ELEMENTARY", "level_clean": "Elementary", "longitude": -122.4764898, "naics_code": "611110", "naics_desc": "ELEMENTARY AND SECONDARY SCHOOLS", "name": "ARGONNE ELEMENTARY", "ncesid": "063441005586", "population": 379, "shelter_id": "NOT AVAILABLE", "source": "https://nces.ed.gov/ccd/schoolsearch/school_list.asp?schoolid=063441005586", "source_dat": "Wed, 31 Jan 2024 00:00:00 GMT", "st_grade": "KG", "state": "CA", "status": "1", "telephone": "(415) 750-8460", "type": "1", "val_date": "Tue, 23 Feb 2016 00:00:00 GMT", "val_method": "IMAGERY", "website": "NOT AVAILABLE", "zip": "94121", "zip4": "3818", "school_id": 66 }, "geometry": { "type": "Point", "coordinates": [ -122.476489753699354, 37.775290687115543 ] } },
{ "type": "Feature", "properties": { "address": "1000 CAYUGA AVE.", "city": "SAN FRANCISCO", "country": "USA", "county": "SAN FRANCISCO", "countyfips": "06075", "districtid": "0634410", "end_grade": "12", "enrollment": 1278.0, "fid": 14168, "ft_teacher": 58, "globalid": "4ae22b9c-dc7a-475c-9339-ca135898145f", "latitude": 37.7210375, "level_": "HIGH", "level_clean": "High", "longitude": -122.4410599, "naics_code": "611110", "naics_desc": "ELEMENTARY AND SECONDARY SCHOOLS", "name": "BALBOA HIGH", "ncesid": "063441005587", "population": 1336, "shelter_id": "NOT AVAILABLE", "source": "https://nces.ed.gov/ccd/schoolsearch/school_list.asp?schoolid=063441005587", "source_dat": "Wed, 31 Jan 2024 00:00:00 GMT", "st_grade": "09", "state": "CA", "status": "1", "telephone": "(415) 469-4090", "type": "1", "val_date": "Mon, 07 Jun 2010 00:00:00 GMT", "val_method": "IMAGERY", "website": "NOT AVAILABLE", "zip": "94112", "zip4": "3236", "school_id": 67 }, "geometry": { "type": "Point", "coordinates": [ -122.441059932869294, 37.721037509073838 ] } },
{ "type": "Feature", "properties": { "address": "375 SEVENTH ST.", "city": "SAN FRANCISCO", "country": "USA", "county": "SAN FRANCISCO", "countyfips": "06075", "districtid": "0634410", "end_grade": "08", "enrollment": 544.0, "fid": 14169, "ft_teacher": 25, "globalid": "24dea8e3-722b-4623-9e86-29d53d93b680", "latitude": 37.7761815, "level_": "ELEMENTARY", "level_clean": "Elementary", "longitude": -122.4063527, "naics_code": "611110", "naics_desc": "ELEMENTARY AND SECONDARY SCHOOLS", "name": "CARMICHAEL (BESSIE)/FEC", "ncesid": "063441005590", "population": 569, "shelter_id": "NOT AVAILABLE", "source": "https://nces.ed.gov/ccd/schoolsearch/school_list.asp?schoolid=063441005590", "source_dat": "Wed, 31 Jan 2024 00:00:00 GMT", "st_grade": "KG", "state": "CA", "status": "1", "telephone": "(415) 355-6916", "type": "1", "val_date": "Tue, 23 Feb 2016 00:00:00 GMT", "val_method": "IMAGERY/OTHER", "website": "NOT AVAILABLE", "zip": "94103", "zip4": "4020", "school_id": 68 }, "geometry": { "type": "Point", "coordinates": [ -122.406352712807745, 37.776181506970971 ] } },
{ "type": "Feature", "properties": { "address": "1035 GILMAN AVE.", "city": "SAN FRANCISCO", "country": "USA", "county": "SAN FRANCISCO", "countyfips": "06075", "districtid": "0634410", "end_grade": "05", "enrollment": 240.0, "fid": 14170, "ft_teacher": 11, "globalid": "b9b90304-4170-4647-97f1-9a76961bf24d", "latitude": 37.7183949, "level_": "ELEMENTARY", "level_clean": "Elementary", "longitude": -122.3891204, "naics_code": "611110", "naics_desc": "ELEMENTARY AND SECONDARY SCHOOLS", "name": "HARTE (BRET) ELEMENTARY", "ncesid": "063441005591", "population": 251, "shelter_id": "NOT AVAILABLE", "source": "https://nces.ed.gov/ccd/schoolsearch/school_list.asp?schoolid=063441005591", "source_dat": "Wed, 31 Jan 2024 00:00:00 GMT", "st_grade": "KG", "state": "CA", "status": "1", "telephone": "(415) 330-1520", "type": "1", "val_date": "Tue, 23 Feb 2016 00:00:00 GMT", "val_method": "IMAGERY/OTHER", "website": "NOT AVAILABLE", "zip": "94124", "zip4": "3710", "school_id": 69 }, "geometry": { "type": "Point", "coordinates": [ -122.389120375005717, 37.718394897106833 ] } },
{ "type": "Feature", "properties": { "address": "2641 25TH ST.", "city": "SAN FRANCISCO", "country": "USA", "county": "SAN FRANCISCO", "countyfips": "06075", "districtid": "0634410", "end_grade": "05", "enrollment": 226.0, "fid": 14171, "ft_teacher": 11, "globalid": "bcb3e429-0041-4c85-8f00-70d4866e7ab0", "latitude": 37.7516127, "level_": "ELEMENTARY", "level_clean": "Elementary", "longitude": -122.40474, "naics_code": "611110", "naics_desc": "ELEMENTARY AND SECONDARY SCHOOLS", "name": "BRYANT ELEMENTARY", "ncesid": "063441005592", "population": 237, "shelter_id": "NOT AVAILABLE", "source": "https://nces.ed.gov/ccd/schoolsearch/school_list.asp?schoolid=063441005592", "source_dat": "Wed, 31 Jan 2024 00:00:00 GMT", "st_grade": "KG", "state": "CA", "status": "1", "telephone": "(415) 695-5780", "type": "1", "val_date": "Tue, 12 Jul 2016 00:00:00 GMT", "val_method": "IMAGERY/OTHER", "website": "NOT AVAILABLE", "zip": "94110", "zip4": "3514", "school_id": 70 }, "geometry": { "type": "Point", "coordinates": [ -122.40473999905187, 37.751612699566486 ] } },
{ "type": "Feature", "properties": { "address": "657 MERCHANT ST.", "city": "SAN FRANCISCO", "country": "USA", "county": "SAN FRANCISCO", "countyfips": "06075", "districtid": "0634410", "end_grade": "05", "enrollment": 21.0, "fid": 14172, "ft_teacher": 3, "globalid": "53669964-c26c-4844-9f41-200ae939aa23", "latitude": 37.7948421, "level_": "ELEMENTARY", "level_clean": "Elementary", "longitude": -122.4040925, "naics_code": "611110", "naics_desc": "ELEMENTARY AND SECONDARY SCHOOLS", "name": "LEE (EDWIN AND ANITA) NEWCOMER", "ncesid": "063441005596", "population": 24, "shelter_id": "NOT AVAILABLE", "source": "https://nces.ed.gov/ccd/schoolsearch/school_list.asp?schoolid=063441005596", "source_dat": "Wed, 31 Jan 2024 00:00:00 GMT", "st_grade": "KG", "state": "CA", "status": "1", "telephone": "(415) 291-7918", "type": "1", "val_date": "Tue, 23 Feb 2016 00:00:00 GMT", "val_method": "IMAGERY/OTHER", "website": "NOT AVAILABLE", "zip": "94111", "zip4": "2505", "school_id": 71 }, "geometry": { "type": "Point", "coordinates": [ -122.404092506064003, 37.794842134556902 ] } },
{ "type": "Feature", "properties": { "address": "455 ATHENS ST.", "city": "SAN FRANCISCO", "country": "USA", "county": "SAN FRANCISCO", "countyfips": "06075", "districtid": "0634410", "end_grade": "05", "enrollment": 297.0, "fid": 14173, "ft_teacher": 16, "globalid": "643619c8-4f6a-4561-b12b-6e1e8601fccf", "latitude": 37.720541, "level_": "ELEMENTARY", "level_clean": "Elementary", "longitude": -122.4288611, "naics_code": "611110", "naics_desc": "ELEMENTARY AND SECONDARY SCHOOLS", "name": "CLEVELAND ELEMENTARY", "ncesid": "063441005597", "population": 313, "shelter_id": "NOT AVAILABLE", "source": "https://nces.ed.gov/ccd/schoolsearch/school_list.asp?schoolid=063441005597", "source_dat": "Wed, 31 Jan 2024 00:00:00 GMT", "st_grade": "KG", "state": "CA", "status": "1", "telephone": "(415) 469-4709", "type": "1", "val_date": "Tue, 23 Feb 2016 00:00:00 GMT", "val_method": "IMAGERY/OTHER", "website": "NOT AVAILABLE", "zip": "94112", "zip4": "2801", "school_id": 72 }, "geometry": { "type": "Point", "coordinates": [ -122.428861091566461, 37.72054103384167 ] } },
{ "type": "Feature", "properties": { "address": "50 DARIEN WAY", "city": "SAN FRANCISCO", "country": "USA", "county": "SAN FRANCISCO", "countyfips": "06075", "districtid": "0634410", "end_grade": "05", "enrollment": 377.0, "fid": 14174, "ft_teacher": 15, "globalid": "285d10ed-0337-4069-8ab1-43fbd8c03fc1", "latitude": 37.7314644, "level_": "ELEMENTARY", "level_clean": "Elementary", "longitude": -122.4706133, "naics_code": "611110", "naics_desc": "ELEMENTARY AND SECONDARY SCHOOLS", "name": "SLOAT (COMMODORE) ELEMENTARY", "ncesid": "063441005598", "population": 392, "shelter_id": "NOT AVAILABLE", "source": "https://nces.ed.gov/ccd/schoolsearch/school_list.asp?schoolid=063441005598", "source_dat": "Wed, 31 Jan 2024 00:00:00 GMT", "st_grade": "KG", "state": "CA", "status": "1", "telephone": "(415) 759-2807", "type": "1", "val_date": "Tue, 23 Feb 2016 00:00:00 GMT", "val_method": "IMAGERY", "website": "NOT AVAILABLE", "zip": "94127", "zip4": "1902", "school_id": 73 }, "geometry": { "type": "Point", "coordinates": [ -122.470613262391865, 37.731464403559443 ] } },
{ "type": "Feature", "properties": { "address": "950 CLAY ST.", "city": "SAN FRANCISCO", "country": "USA", "county": "SAN FRANCISCO", "countyfips": "06075", "districtid": "0634410", "end_grade": "05", "enrollment": 644.0, "fid": 14175, "ft_teacher": 28, "globalid": "063f9183-774e-497d-aef9-9c8d0bdd30ac", "latitude": 37.7943805, "level_": "ELEMENTARY", "level_clean": "Elementary", "longitude": -122.4087933, "naics_code": "611110", "naics_desc": "ELEMENTARY AND SECONDARY SCHOOLS", "name": "LAU (GORDON J.) ELEMENTARY", "ncesid": "063441005599", "population": 672, "shelter_id": "NOT AVAILABLE", "source": "https://nces.ed.gov/ccd/schoolsearch/school_list.asp?schoolid=063441005599", "source_dat": "Wed, 31 Jan 2024 00:00:00 GMT", "st_grade": "KG", "state": "CA", "status": "1", "telephone": "(415) 291-7921", "type": "1", "val_date": "Tue, 23 Feb 2016 00:00:00 GMT", "val_method": "IMAGERY/OTHER", "website": "NOT AVAILABLE", "zip": "94108", "zip4": "1521", "school_id": 74 }, "geometry": { "type": "Point", "coordinates": [ -122.408793292077064, 37.794380528738486 ] } },
{ "type": "Feature", "properties": { "address": "465 MISSOURI ST.", "city": "SAN FRANCISCO", "country": "USA", "county": "SAN FRANCISCO", "countyfips": "06075", "districtid": "0634410", "end_grade": "05", "enrollment": 346.0, "fid": 14176, "ft_teacher": 17, "globalid": "09f55e2a-fc4c-42a0-b755-fc2cf3ba0ffd", "latitude": 37.7605936, "level_": "ELEMENTARY", "level_clean": "Elementary", "longitude": -122.3958391, "naics_code": "611110", "naics_desc": "ELEMENTARY AND SECONDARY SCHOOLS", "name": "WEBSTER (DANIEL) ELEMENTARY", "ncesid": "063441005600", "population": 363, "shelter_id": "NOT AVAILABLE", "source": "https://nces.ed.gov/ccd/schoolsearch/school_list.asp?schoolid=063441005600", "source_dat": "Wed, 31 Jan 2024 00:00:00 GMT", "st_grade": "KG", "state": "CA", "status": "1", "telephone": "(415) 695-5787", "type": "1", "val_date": "Tue, 23 Feb 2016 00:00:00 GMT", "val_method": "IMAGERY/OTHER", "website": "NOT AVAILABLE", "zip": "94107", "zip4": "2826", "school_id": 75 }, "geometry": { "type": "Point", "coordinates": [ -122.395839060724356, 37.760593563342361 ] } },
{ "type": "Feature", "properties": { "address": "4235 19TH ST.", "city": "SAN FRANCISCO", "country": "USA", "county": "SAN FRANCISCO", "countyfips": "06075", "districtid": "0634410", "end_grade": "05", "enrollment": 169.0, "fid": 14177, "ft_teacher": 10, "globalid": "67f373d5-8b72-478e-b124-16d11c67f790", "latitude": 37.7590319, "level_": "ELEMENTARY", "level_clean": "Elementary", "longitude": -122.436258, "naics_code": "611110", "naics_desc": "ELEMENTARY AND SECONDARY SCHOOLS", "name": "MILK (HARVEY) CIVIL RIGHTS ELEMENTARY", "ncesid": "063441005601", "population": 179, "shelter_id": "NOT AVAILABLE", "source": "https://nces.ed.gov/ccd/schoolsearch/school_list.asp?schoolid=063441005601", "source_dat": "Wed, 31 Jan 2024 00:00:00 GMT", "st_grade": "KG", "state": "CA", "status": "1", "telephone": "(415) 241-6276", "type": "1", "val_date": "Tue, 08 Jun 2010 00:00:00 GMT", "val_method": "IMAGERY", "website": "NOT AVAILABLE", "zip": "94114", "zip4": "2415", "school_id": 76 }, "geometry": { "type": "Point", "coordinates": [ -122.436257981221019, 37.759031911293761 ] } },
{ "type": "Feature", "properties": { "address": "693 VERMONT ST.", "city": "SAN FRANCISCO", "country": "USA", "county": "SAN FRANCISCO", "countyfips": "06075", "districtid": "0634410", "end_grade": "12", "enrollment": 103.0, "fid": 14178, "ft_teacher": 6, "globalid": "8066299c-fe96-4efd-abfe-e497f91d5577", "latitude": 37.7615671, "level_": "HIGH", "level_clean": "High", "longitude": -122.4039725, "naics_code": "611110", "naics_desc": "ELEMENTARY AND SECONDARY SCHOOLS", "name": "DOWNTOWN HIGH", "ncesid": "063441005602", "population": 109, "shelter_id": "NOT AVAILABLE", "source": "https://nces.ed.gov/ccd/schoolsearch/school_list.asp?schoolid=063441005602", "source_dat": "Wed, 31 Jan 2024 00:00:00 GMT", "st_grade": "09", "state": "CA", "status": "1", "telephone": "(415) 695-5860", "type": "4", "val_date": "Mon, 30 Oct 2017 00:00:00 GMT", "val_method": "IMAGERY/OTHER", "website": "NOT AVAILABLE", "zip": "94107", "zip4": "2635", "school_id": 77 }, "geometry": { "type": "Point", "coordinates": [ -122.403972494234935, 37.761567053376844 ] } },
{ "type": "Feature", "properties": { "address": "423 BURROWS ST.", "city": "SAN FRANCISCO", "country": "USA", "county": "SAN FRANCISCO", "countyfips": "06075", "districtid": "0634410", "end_grade": "05", "enrollment": 589.0, "fid": 14179, "ft_teacher": 27, "globalid": "cfe9441e-d9a6-4ada-8175-123252594ae0", "latitude": 37.727501, "level_": "ELEMENTARY", "level_clean": "Elementary", "longitude": -122.4070859, "naics_code": "611110", "naics_desc": "ELEMENTARY AND SECONDARY SCHOOLS", "name": "TAYLOR (EDWARD R.) ELEMENTARY", "ncesid": "063441005604", "population": 616, "shelter_id": "NOT AVAILABLE", "source": "https://nces.ed.gov/ccd/schoolsearch/school_list.asp?schoolid=063441005604", "source_dat": "Wed, 31 Jan 2024 00:00:00 GMT", "st_grade": "KG", "state": "CA", "status": "1", "telephone": "(415) 330-1530", "type": "1", "val_date": "Tue, 23 Feb 2016 00:00:00 GMT", "val_method": "IMAGERY", "website": "NOT AVAILABLE", "zip": "94134", "zip4": "1449", "school_id": 78 }, "geometry": { "type": "Point", "coordinates": [ -122.407085918380446, 37.727501026551174 ] } },
{ "type": "Feature", "properties": { "address": "70 DELTA ST.", "city": "SAN FRANCISCO", "country": "USA", "county": "SAN FRANCISCO", "countyfips": "06075", "districtid": "0634410", "end_grade": "05", "enrollment": 135.0, "fid": 14180, "ft_teacher": 6, "globalid": "791eeade-ac1c-4565-ace3-debbaec385fa", "latitude": 37.7185704, "level_": "ELEMENTARY", "level_clean": "Elementary", "longitude": -122.4072834, "naics_code": "611110", "naics_desc": "ELEMENTARY AND SECONDARY SCHOOLS", "name": "EL DORADO ELEMENTARY", "ncesid": "063441005605", "population": 141, "shelter_id": "NOT AVAILABLE", "source": "https://nces.ed.gov/ccd/schoolsearch/school_list.asp?schoolid=063441005605", "source_dat": "Wed, 31 Jan 2024 00:00:00 GMT", "st_grade": "KG", "state": "CA", "status": "1", "telephone": "(415) 330-1537", "type": "1", "val_date": "Tue, 08 Jun 2010 00:00:00 GMT", "val_method": "IMAGERY", "website": "NOT AVAILABLE", "zip": "94134", "zip4": "2145", "school_id": 79 }, "geometry": { "type": "Point", "coordinates": [ -122.407283381622918, 37.718570444770229 ] } },
{ "type": "Feature", "properties": { "address": "65 CHENERY ST.", "city": "SAN FRANCISCO", "country": "USA", "county": "SAN FRANCISCO", "countyfips": "06075", "districtid": "0634410", "end_grade": "05", "enrollment": 337.0, "fid": 14181, "ft_teacher": 15, "globalid": "8e35e40a-d270-43b3-b069-3084ac92b59f", "latitude": 37.7405091, "level_": "ELEMENTARY", "level_clean": "Elementary", "longitude": -122.4251396, "naics_code": "611110", "naics_desc": "ELEMENTARY AND SECONDARY SCHOOLS", "name": "HUERTA (DOLORES) ELEMENTARY", "ncesid": "063441005607", "population": 352, "shelter_id": "NOT AVAILABLE", "source": "https://nces.ed.gov/ccd/schoolsearch/school_list.asp?schoolid=063441005607", "source_dat": "Wed, 31 Jan 2024 00:00:00 GMT", "st_grade": "KG", "state": "CA", "status": "1", "telephone": "(415) 695-5669", "type": "1", "val_date": "Tue, 08 Jun 2010 00:00:00 GMT", "val_method": "IMAGERY", "website": "NOT AVAILABLE", "zip": "94131", "zip4": "2706", "school_id": 80 }, "geometry": { "type": "Point", "coordinates": [ -122.425139563839807, 37.74050913358969 ] } },
{ "type": "Feature", "properties": { "address": "1530 43RD AVE.", "city": "SAN FRANCISCO", "country": "USA", "county": "SAN FRANCISCO", "countyfips": "06075", "districtid": "0634410", "end_grade": "05", "enrollment": 568.0, "fid": 14182, "ft_teacher": 20, "globalid": "0caaaec4-d175-4fee-8426-4a1c5b1183d3", "latitude": 37.7580809, "level_": "ELEMENTARY", "level_clean": "Elementary", "longitude": -122.5023308, "naics_code": "611110", "naics_desc": "ELEMENTARY AND SECONDARY SCHOOLS", "name": "KEY (FRANCIS SCOTT) ELEMENTARY", "ncesid": "063441005609", "population": 588, "shelter_id": "NOT AVAILABLE", "source": "https://nces.ed.gov/ccd/schoolsearch/school_list.asp?schoolid=063441005609", "source_dat": "Wed, 31 Jan 2024 00:00:00 GMT", "st_grade": "KG", "state": "CA", "status": "1", "telephone": "(415) 759-2811", "type": "1", "val_date": "Tue, 23 Feb 2016 00:00:00 GMT", "val_method": "IMAGERY", "website": "NOT AVAILABLE", "zip": "94122", "zip4": "2925", "school_id": 81 }, "geometry": { "type": "Point", "coordinates": [ -122.502330804123673, 37.758080851250348 ] } },
{ "type": "Feature", "properties": { "address": "2190 POWELL ST.", "city": "SAN FRANCISCO", "country": "USA", "county": "SAN FRANCISCO", "countyfips": "06075", "districtid": "0634410", "end_grade": "08", "enrollment": 535.0, "fid": 14183, "ft_teacher": 30, "globalid": "edc21385-24a9-4962-93ee-016b0b47877d", "latitude": 37.8045342, "level_": "MIDDLE", "level_clean": "Middle", "longitude": -122.4114266, "naics_code": "611110", "naics_desc": "ELEMENTARY AND SECONDARY SCHOOLS", "name": "FRANCISCO MIDDLE", "ncesid": "063441005610", "population": 565, "shelter_id": "10780984", "source": "https://nces.ed.gov/ccd/schoolsearch/school_list.asp?schoolid=063441005610", "source_dat": "Wed, 31 Jan 2024 00:00:00 GMT", "st_grade": "06", "state": "CA", "status": "1", "telephone": "(415) 291-7900", "type": "1", "val_date": "Tue, 23 Feb 2016 00:00:00 GMT", "val_method": "IMAGERY", "website": "NOT AVAILABLE", "zip": "94133", "zip4": "1949", "school_id": 82 }, "geometry": { "type": "Point", "coordinates": [ -122.411426561886415, 37.804534195696633 ] } },
{ "type": "Feature", "properties": { "address": "651 SIXTH AVE.", "city": "SAN FRANCISCO", "country": "USA", "county": "SAN FRANCISCO", "countyfips": "06075", "districtid": "0634410", "end_grade": "05", "enrollment": 215.0, "fid": 14184, "ft_teacher": 9, "globalid": "522e5a0e-d7f7-4c54-9a4c-7ae0bdb1ea49", "latitude": 37.7763477, "level_": "ELEMENTARY", "level_clean": "Elementary", "longitude": -122.4642067, "naics_code": "611110", "naics_desc": "ELEMENTARY AND SECONDARY SCHOOLS", "name": "MCCOPPIN (FRANK) ELEMENTARY", "ncesid": "063441005611", "population": 224, "shelter_id": "NOT AVAILABLE", "source": "https://nces.ed.gov/ccd/schoolsearch/school_list.asp?schoolid=063441005611", "source_dat": "Wed, 31 Jan 2024 00:00:00 GMT", "st_grade": "KG", "state": "CA", "status": "1", "telephone": "(415) 750-8475", "type": "1", "val_date": "Tue, 23 Feb 2016 00:00:00 GMT", "val_method": "IMAGERY/OTHER", "website": "NOT AVAILABLE", "zip": "94118", "zip4": "3804", "school_id": 83 }, "geometry": { "type": "Point", "coordinates": [ -122.464206735851732, 37.776347726866177 ] } },
{ "type": "Feature", "properties": { "address": "1150 FRANCISCO ST.", "city": "SAN FRANCISCO", "country": "USA", "county": "SAN FRANCISCO", "countyfips": "06075", "districtid": "0634410", "end_grade": "12", "enrollment": 1826.0, "fid": 14185, "ft_teacher": 84, "globalid": "f129c4d1-5d07-4130-a2a8-2e28c75f687a", "latitude": 37.8038962, "level_": "HIGH", "level_clean": "High", "longitude": -122.4236571, "naics_code": "611110", "naics_desc": "ELEMENTARY AND SECONDARY SCHOOLS", "name": "GALILEO HIGH", "ncesid": "063441005612", "population": 1910, "shelter_id": "10801600", "source": "https://nces.ed.gov/ccd/schoolsearch/school_list.asp?schoolid=063441005612", "source_dat": "Wed, 31 Jan 2024 00:00:00 GMT", "st_grade": "09", "state": "CA", "status": "1", "telephone": "(415) 749-3430", "type": "1", "val_date": "Mon, 07 Jun 2010 00:00:00 GMT", "val_method": "IMAGERY", "website": "NOT AVAILABLE", "zip": "94109", "zip4": "1004", "school_id": 84 }, "geometry": { "type": "Point", "coordinates": [ -122.423657061124231, 37.80389624901273 ] } },
{ "type": "Feature", "properties": { "address": "420 FILBERT ST.", "city": "SAN FRANCISCO", "country": "USA", "county": "SAN FRANCISCO", "countyfips": "06075", "districtid": "0634410", "end_grade": "05", "enrollment": 194.0, "fid": 14186, "ft_teacher": 12, "globalid": "17dbb396-ea1d-49c3-96f0-67d221ec1233", "latitude": 37.8019825, "level_": "ELEMENTARY", "level_clean": "Elementary", "longitude": -122.40666, "naics_code": "611110", "naics_desc": "ELEMENTARY AND SECONDARY SCHOOLS", "name": "GARFIELD ELEMENTARY", "ncesid": "063441005613", "population": 206, "shelter_id": "NOT AVAILABLE", "source": "https://nces.ed.gov/ccd/schoolsearch/school_list.asp?schoolid=063441005613", "source_dat": "Wed, 31 Jan 2024 00:00:00 GMT", "st_grade": "KG", "state": "CA", "status": "1", "telephone": "(415) 291-7924", "type": "1", "val_date": "Tue, 23 Feb 2016 00:00:00 GMT", "val_method": "IMAGERY/OTHER", "website": "NOT AVAILABLE", "zip": "94133", "zip4": "3002", "school_id": 85 }, "geometry": { "type": "Point", "coordinates": [ -122.4066599742779, 37.801982507886486 ] } },
{ "type": "Feature", "properties": { "address": "251 SIXTH AVE.", "city": "SAN FRANCISCO", "country": "USA", "county": "SAN FRANCISCO", "countyfips": "06075", "districtid": "0634410", "end_grade": "05", "enrollment": 269.0, "fid": 14187, "ft_teacher": 11, "globalid": "4c7c9810-f282-42d7-b829-a40214c64989", "latitude": 37.7839526, "level_": "ELEMENTARY", "level_clean": "Elementary", "longitude": -122.4649254, "naics_code": "611110", "naics_desc": "ELEMENTARY AND SECONDARY SCHOOLS", "name": "PEABODY (GEORGE) ELEMENTARY", "ncesid": "063441005614", "population": 280, "shelter_id": "NOT AVAILABLE", "source": "https://nces.ed.gov/ccd/schoolsearch/school_list.asp?schoolid=063441005614", "source_dat": "Wed, 31 Jan 2024 00:00:00 GMT", "st_grade": "KG", "state": "CA", "status": "1", "telephone": "(415) 750-8480", "type": "1", "val_date": "Mon, 18 Feb 2019 00:00:00 GMT", "val_method": "IMAGERY", "website": "NOT AVAILABLE", "zip": "94118", "zip4": "2311", "school_id": 86 }, "geometry": { "type": "Point", "coordinates": [ -122.464925427266252, 37.783952591938586 ] } },
{ "type": "Feature", "properties": { "address": "2576 HARRISON ST.", "city": "SAN FRANCISCO", "country": "USA", "county": "SAN FRANCISCO", "countyfips": "06075", "districtid": "0634410", "end_grade": "05", "enrollment": 357.0, "fid": 14188, "ft_teacher": 14, "globalid": "ec80b85c-f21a-4bf7-bb80-fb9d1ab1e58d", "latitude": 37.7566892, "level_": "ELEMENTARY", "level_clean": "Elementary", "longitude": -122.4126319, "naics_code": "611110", "naics_desc": "ELEMENTARY AND SECONDARY SCHOOLS", "name": "MOSCONE (GEORGE R.) ELEMENTARY", "ncesid": "063441005615", "population": 371, "shelter_id": "NOT AVAILABLE", "source": "https://nces.ed.gov/ccd/schoolsearch/school_list.asp?schoolid=063441005615", "source_dat": "Wed, 31 Jan 2024 00:00:00 GMT", "st_grade": "KG", "state": "CA", "status": "1", "telephone": "(415) 695-5736", "type": "1", "val_date": "Tue, 08 Jun 2010 00:00:00 GMT", "val_method": "IMAGERY", "website": "NOT AVAILABLE", "zip": "94110", "zip4": "2720", "school_id": 87 }, "geometry": { "type": "Point", "coordinates": [ -122.412631941210776, 37.756689153981313 ] } },
{ "type": "Feature", "properties": { "address": "1360 OAKDALE AVE.", "city": "SAN FRANCISCO", "country": "USA", "county": "SAN FRANCISCO", "countyfips": "06075", "districtid": "0634410", "end_grade": "05", "enrollment": 101.0, "fid": 14189, "ft_teacher": 5, "globalid": "c5adb8af-f725-4bac-acf7-c4e17d68731e", "latitude": 37.7319747, "level_": "ELEMENTARY", "level_clean": "Elementary", "longitude": -122.385584, "naics_code": "611110", "naics_desc": "ELEMENTARY AND SECONDARY SCHOOLS", "name": "CARVER (GEORGE WASHINGTON) ELEMENTARY", "ncesid": "063441005616", "population": 106, "shelter_id": "NOT AVAILABLE", "source": "https://nces.ed.gov/ccd/schoolsearch/school_list.asp?schoolid=063441005616", "source_dat": "Wed, 31 Jan 2024 00:00:00 GMT", "st_grade": "KG", "state": "CA", "status": "1", "telephone": "(415) 330-1540", "type": "1", "val_date": "Tue, 23 Feb 2016 00:00:00 GMT", "val_method": "IMAGERY", "website": "NOT AVAILABLE", "zip": "94124", "zip4": "2724", "school_id": 88 }, "geometry": { "type": "Point", "coordinates": [ -122.385584045566958, 37.731974743639576 ] } },
{ "type": "Feature", "properties": { "address": "600 32ND AVE.", "city": "SAN FRANCISCO", "country": "USA", "county": "SAN FRANCISCO", "countyfips": "06075", "districtid": "0634410", "end_grade": "12", "enrollment": 2036.0, "fid": 14190, "ft_teacher": 86, "globalid": "156a62a6-5bcf-4c12-80a9-0d80adadba89", "latitude": 37.777695, "level_": "HIGH", "level_clean": "High", "longitude": -122.4911041, "naics_code": "611110", "naics_desc": "ELEMENTARY AND SECONDARY SCHOOLS", "name": "WASHINGTON (GEORGE) HIGH", "ncesid": "063441005617", "population": 2122, "shelter_id": "10789708", "source": "https://nces.ed.gov/ccd/schoolsearch/school_list.asp?schoolid=063441005617", "source_dat": "Wed, 31 Jan 2024 00:00:00 GMT", "st_grade": "09", "state": "CA", "status": "1", "telephone": "(415) 750-8400", "type": "1", "val_date": "Mon, 07 Jun 2010 00:00:00 GMT", "val_method": "IMAGERY", "website": "NOT AVAILABLE", "zip": "94121", "zip4": "2733", "school_id": 89 }, "geometry": { "type": "Point", "coordinates": [ -122.491104132649596, 37.777694974243701 ] } },
{ "type": "Feature", "properties": { "address": "151 LIPPARD AVE.", "city": "SAN FRANCISCO", "country": "USA", "county": "SAN FRANCISCO", "countyfips": "06075", "districtid": "0634410", "end_grade": "05", "enrollment": 308.0, "fid": 14191, "ft_teacher": 15, "globalid": "b4f2f267-6c02-4352-b2d1-438faa2fc64c", "latitude": 37.7331762, "level_": "ELEMENTARY", "level_clean": "Elementary", "longitude": -122.4357388, "naics_code": "611110", "naics_desc": "ELEMENTARY AND SECONDARY SCHOOLS", "name": "GLEN PARK ELEMENTARY", "ncesid": "063441005618", "population": 323, "shelter_id": "NOT AVAILABLE", "source": "https://nces.ed.gov/ccd/schoolsearch/school_list.asp?schoolid=063441005618", "source_dat": "Wed, 31 Jan 2024 00:00:00 GMT", "st_grade": "KG", "state": "CA", "status": "1", "telephone": "(415) 469-4713", "type": "1", "val_date": "Tue, 23 Feb 2016 00:00:00 GMT", "val_method": "IMAGERY", "website": "NOT AVAILABLE", "zip": "94131", "zip4": "3249", "school_id": 90 }, "geometry": { "type": "Point", "coordinates": [ -122.43573883857681, 37.733176234295833 ] } },
{ "type": "Feature", "properties": { "address": "165 GRATTAN ST.", "city": "SAN FRANCISCO", "country": "USA", "county": "SAN FRANCISCO", "countyfips": "06075", "districtid": "0634410", "end_grade": "05", "enrollment": 376.0, "fid": 14192, "ft_teacher": 19, "globalid": "1a4b9218-5907-40a8-8a2d-c70879c25d22", "latitude": 37.7635476, "level_": "ELEMENTARY", "level_clean": "Elementary", "longitude": -122.4506685, "naics_code": "611110", "naics_desc": "ELEMENTARY AND SECONDARY SCHOOLS", "name": "GRATTAN ELEMENTARY", "ncesid": "063441005620", "population": 395, "shelter_id": "NOT AVAILABLE", "source": "https://nces.ed.gov/ccd/schoolsearch/school_list.asp?schoolid=063441005620", "source_dat": "Wed, 31 Jan 2024 00:00:00 GMT", "st_grade": "KG", "state": "CA", "status": "1", "telephone": "(415) 759-2815", "type": "1", "val_date": "Tue, 23 Feb 2016 00:00:00 GMT", "val_method": "IMAGERY/OTHER", "website": "NOT AVAILABLE", "zip": "94117", "zip4": "4208", "school_id": 91 }, "geometry": { "type": "Point", "coordinates": [ -122.450668544117647, 37.763547643808728 ] } },
{ "type": "Feature", "properties": { "address": "859 PRAGUE ST.", "city": "SAN FRANCISCO", "country": "USA", "county": "SAN FRANCISCO", "countyfips": "06075", "districtid": "0634410", "end_grade": "05", "enrollment": 278.0, "fid": 14193, "ft_teacher": 10, "globalid": "3402dd5b-51ae-492f-a915-3563934a6e6b", "latitude": 37.7103545, "level_": "ELEMENTARY", "level_clean": "Elementary", "longitude": -122.434245, "naics_code": "611110", "naics_desc": "ELEMENTARY AND SECONDARY SCHOOLS", "name": "GUADALUPE ELEMENTARY", "ncesid": "063441005621", "population": 288, "shelter_id": "NOT AVAILABLE", "source": "https://nces.ed.gov/ccd/schoolsearch/school_list.asp?schoolid=063441005621", "source_dat": "Wed, 31 Jan 2024 00:00:00 GMT", "st_grade": "KG", "state": "CA", "status": "1", "telephone": "(415) 469-4718", "type": "1", "val_date": "Tue, 23 Feb 2016 00:00:00 GMT", "val_method": "IMAGERY", "website": "NOT AVAILABLE", "zip": "94112", "zip4": "4516", "school_id": 92 }, "geometry": { "type": "Point", "coordinates": [ -122.43424498102128, 37.710354485870866 ] } },
{ "type": "Feature", "properties": { "address": "825 SHOTWELL ST.", "city": "SAN FRANCISCO", "country": "USA", "county": "SAN FRANCISCO", "countyfips": "06075", "districtid": "0634410", "end_grade": "05", "enrollment": 423.0, "fid": 14194, "ft_teacher": 20, "globalid": "bc12cd8d-a069-4ca8-9a88-3e2b8177020e", "latitude": 37.7549502, "level_": "ELEMENTARY", "level_clean": "Elementary", "longitude": -122.4151691, "naics_code": "611110", "naics_desc": "ELEMENTARY AND SECONDARY SCHOOLS", "name": "CHAVEZ (CESAR) ELEMENTARY", "ncesid": "063441005623", "population": 443, "shelter_id": "NOT AVAILABLE", "source": "https://nces.ed.gov/ccd/schoolsearch/school_list.asp?schoolid=063441005623", "source_dat": "Wed, 31 Jan 2024 00:00:00 GMT", "st_grade": "KG", "state": "CA", "status": "1", "telephone": "(415) 695-5765", "type": "1", "val_date": "Tue, 23 Feb 2016 00:00:00 GMT", "val_method": "IMAGERY/OTHER", "website": "NOT AVAILABLE", "zip": "94110", "zip4": "3212", "school_id": 93 }, "geometry": { "type": "Point", "coordinates": [ -122.415169124755067, 37.754950200591324 ] } },
{ "type": "Feature", "properties": { "address": "2290 14TH AVE.", "city": "SAN FRANCISCO", "country": "USA", "county": "SAN FRANCISCO", "countyfips": "06075", "districtid": "0634410", "end_grade": "08", "enrollment": 938.0, "fid": 14195, "ft_teacher": 40, "globalid": "6c10fc13-3890-4faa-b87b-48e2bfcc6656", "latitude": 37.7453732, "level_": "MIDDLE", "level_clean": "Middle", "longitude": -122.4690348, "naics_code": "611110", "naics_desc": "ELEMENTARY AND SECONDARY SCHOOLS", "name": "HOOVER (HERBERT) MIDDLE", "ncesid": "063441005624", "population": 978, "shelter_id": "NOT AVAILABLE", "source": "https://nces.ed.gov/ccd/schoolsearch/school_list.asp?schoolid=063441005624", "source_dat": "Wed, 31 Jan 2024 00:00:00 GMT", "st_grade": "06", "state": "CA", "status": "1", "telephone": "(415) 759-2783", "type": "1", "val_date": "Mon, 07 Jun 2010 00:00:00 GMT", "val_method": "IMAGERY", "website": "NOT AVAILABLE", "zip": "94116", "zip4": "1841", "school_id": 94 }, "geometry": { "type": "Point", "coordinates": [ -122.469034828094806, 37.745373231089793 ] } },
{ "type": "Feature", "properties": { "address": "810 SILVER AVE.", "city": "SAN FRANCISCO", "country": "USA", "county": "SAN FRANCISCO", "countyfips": "06075", "districtid": "0634410", "end_grade": "05", "enrollment": 336.0, "fid": 14196, "ft_teacher": 16, "globalid": "feaee183-aab7-4eb0-aaa8-dd9aabfb0030", "latitude": 37.728363, "level_": "ELEMENTARY", "level_clean": "Elementary", "longitude": -122.4189629, "naics_code": "611110", "naics_desc": "ELEMENTARY AND SECONDARY SCHOOLS", "name": "HILLCREST ELEMENTARY", "ncesid": "063441005625", "population": 352, "shelter_id": "NOT AVAILABLE", "source": "https://nces.ed.gov/ccd/schoolsearch/school_list.asp?schoolid=063441005625", "source_dat": "Wed, 31 Jan 2024 00:00:00 GMT", "st_grade": "KG", "state": "CA", "status": "1", "telephone": "(415) 469-4722", "type": "1", "val_date": "Tue, 23 Feb 2016 00:00:00 GMT", "val_method": "IMAGERY", "website": "NOT AVAILABLE", "zip": "94134", "zip4": "1012", "school_id": 95 }, "geometry": { "type": "Point", "coordinates": [ -122.418962936390315, 37.728362977269661 ] } },
{ "type": "Feature", "properties": { "address": "3351 23RD ST.", "city": "SAN FRANCISCO", "country": "USA", "county": "SAN FRANCISCO", "countyfips": "06075", "districtid": "0634410", "end_grade": "08", "enrollment": 598.0, "fid": 14197, "ft_teacher": 31, "globalid": "3237d007-75ca-45b5-b35a-74b32d6ffd24", "latitude": 37.7536063, "level_": "ELEMENTARY", "level_clean": "Elementary", "longitude": -122.4203295, "naics_code": "611110", "naics_desc": "ELEMENTARY AND SECONDARY SCHOOLS", "name": "BUENA VISTA/ HORACE MANN K-8", "ncesid": "063441005626", "population": 629, "shelter_id": "10780501", "source": "https://nces.ed.gov/ccd/schoolsearch/school_list.asp?schoolid=063441005626", "source_dat": "Wed, 31 Jan 2024 00:00:00 GMT", "st_grade": "KG", "state": "CA", "status": "1", "telephone": "(415) 695-5881", "type": "1", "val_date": "Tue, 23 Feb 2016 00:00:00 GMT", "val_method": "IMAGERY", "website": "NOT AVAILABLE", "zip": "94110", "zip4": "3031", "school_id": 96 }, "geometry": { "type": "Point", "coordinates": [ -122.420329458937402, 37.753606256423652 ] } },
{ "type": "Feature", "properties": { "address": "241 ONEIDA AVE.", "city": "SAN FRANCISCO", "country": "USA", "county": "SAN FRANCISCO", "countyfips": "06075", "districtid": "0634410", "end_grade": "08", "enrollment": 816.0, "fid": 14198, "ft_teacher": 35, "globalid": "454033c8-43e6-4a46-9fd8-bba008a2534a", "latitude": 37.721559, "level_": "MIDDLE", "level_clean": "Middle", "longitude": -122.4428008, "naics_code": "611110", "naics_desc": "ELEMENTARY AND SECONDARY SCHOOLS", "name": "DENMAN (JAMES) MIDDLE", "ncesid": "063441005628", "population": 851, "shelter_id": "NOT AVAILABLE", "source": "https://nces.ed.gov/ccd/schoolsearch/school_list.asp?schoolid=063441005628", "source_dat": "Wed, 31 Jan 2024 00:00:00 GMT", "st_grade": "06", "state": "CA", "status": "1", "telephone": "(415) 469-4535", "type": "1", "val_date": "Tue, 08 Jun 2010 00:00:00 GMT", "val_method": "IMAGERY", "website": "NOT AVAILABLE", "zip": "94112", "zip4": "3228", "school_id": 97 }, "geometry": { "type": "Point", "coordinates": [ -122.442800773936909, 37.721559048411372 ] } },
{ "type": "Feature", "properties": { "address": "1220 NOE ST.", "city": "SAN FRANCISCO", "country": "USA", "county": "SAN FRANCISCO", "countyfips": "06075", "districtid": "0634410", "end_grade": "08", "enrollment": 485.0, "fid": 14199, "ft_teacher": 30, "globalid": "80fa69db-8b93-405c-8605-d210be15a9b1", "latitude": 37.7495267, "level_": "MIDDLE", "level_clean": "Middle", "longitude": -122.4328386, "naics_code": "611110", "naics_desc": "ELEMENTARY AND SECONDARY SCHOOLS", "name": "LICK (JAMES) MIDDLE", "ncesid": "063441005629", "population": 515, "shelter_id": "NOT AVAILABLE", "source": "https://nces.ed.gov/ccd/schoolsearch/school_list.asp?schoolid=063441005629", "source_dat": "Wed, 31 Jan 2024 00:00:00 GMT", "st_grade": "06", "state": "CA", "status": "1", "telephone": "(415) 695-5675", "type": "1", "val_date": "Tue, 23 Feb 2016 00:00:00 GMT", "val_method": "IMAGERY", "website": "NOT AVAILABLE", "zip": "94114", "zip4": "3714", "school_id": 98 }, "geometry": { "type": "Point", "coordinates": [ -122.43283857444068, 37.74952673107385 ] } },
{ "type": "Feature", "properties": { "address": "840 BRD.WAY ST.", "city": "SAN FRANCISCO", "country": "USA", "county": "SAN FRANCISCO", "countyfips": "06075", "districtid": "0634410", "end_grade": "05", "enrollment": 149.0, "fid": 14200, "ft_teacher": 9, "globalid": "30a15bbc-4747-4ece-8ee8-ade251ca39b4", "latitude": 37.7977196, "level_": "ELEMENTARY", "level_clean": "Elementary", "longitude": -122.4111018, "naics_code": "611110", "naics_desc": "ELEMENTARY AND SECONDARY SCHOOLS", "name": "PARKER (JEAN) ELEMENTARY", "ncesid": "063441005630", "population": 158, "shelter_id": "NOT AVAILABLE", "source": "https://nces.ed.gov/ccd/schoolsearch/school_list.asp?schoolid=063441005630", "source_dat": "Wed, 31 Jan 2024 00:00:00 GMT", "st_grade": "KG", "state": "CA", "status": "1", "telephone": "(415) 291-7990", "type": "1", "val_date": "Tue, 08 Jun 2010 00:00:00 GMT", "val_method": "IMAGERY", "website": "NOT AVAILABLE", "zip": "94133", "zip4": "4219", "school_id": 99 }, "geometry": { "type": "Point", "coordinates": [ -122.411101753743267, 37.797719640449067 ] } },
{ "type": "Feature", "properties": { "address": "1725 IRVING ST.", "city": "SAN FRANCISCO", "country": "USA", "county": "SAN FRANCISCO", "countyfips": "06075", "districtid": "0634410", "end_grade": "05", "enrollment": 490.0, "fid": 14201, "ft_teacher": 21, "globalid": "fd9a7029-d91e-40ed-94a5-948c01608991", "latitude": 37.7630309, "level_": "ELEMENTARY", "level_clean": "Elementary", "longitude": -122.4764926, "naics_code": "611110", "naics_desc": "ELEMENTARY AND SECONDARY SCHOOLS", "name": "JEFFERSON ELEMENTARY", "ncesid": "063441005631", "population": 511, "shelter_id": "NOT AVAILABLE", "source": "https://nces.ed.gov/ccd/schoolsearch/school_list.asp?schoolid=063441005631", "source_dat": "Wed, 31 Jan 2024 00:00:00 GMT", "st_grade": "KG", "state": "CA", "status": "1", "telephone": "(415) 759-2821", "type": "1", "val_date": "Tue, 23 Feb 2016 00:00:00 GMT", "val_method": "IMAGERY", "website": "NOT AVAILABLE", "zip": "94122", "zip4": "1893", "school_id": 100 }, "geometry": { "type": "Point", "coordinates": [ -122.476492600952767, 37.763030875374596 ] } },
{ "type": "Feature", "properties": { "address": "380 WEBSTER ST.", "city": "SAN FRANCISCO", "country": "USA", "county": "SAN FRANCISCO", "countyfips": "06075", "districtid": "0634410", "end_grade": "05", "enrollment": 214.0, "fid": 14202, "ft_teacher": 12, "globalid": "4a3e2773-e369-4774-93f2-342c4280976f", "latitude": 37.7738279, "level_": "ELEMENTARY", "level_clean": "Elementary", "longitude": -122.4289072, "naics_code": "611110", "naics_desc": "ELEMENTARY AND SECONDARY SCHOOLS", "name": "MUIR (JOHN) ELEMENTARY", "ncesid": "063441005633", "population": 226, "shelter_id": "NOT AVAILABLE", "source": "https://nces.ed.gov/ccd/schoolsearch/school_list.asp?schoolid=063441005633", "source_dat": "Wed, 31 Jan 2024 00:00:00 GMT", "st_grade": "KG", "state": "CA", "status": "1", "telephone": "(415) 241-6335", "type": "1", "val_date": "Tue, 23 Feb 2016 00:00:00 GMT", "val_method": "IMAGERY/OTHER", "website": "NOT AVAILABLE", "zip": "94117", "zip4": "3512", "school_id": 101 }, "geometry": { "type": "Point", "coordinates": [ -122.428907156639724, 37.773827886747661 ] } },
{ "type": "Feature", "properties": { "address": "400 SARGENT ST.", "city": "SAN FRANCISCO", "country": "USA", "county": "SAN FRANCISCO", "countyfips": "06075", "districtid": "0634410", "end_grade": "05", "enrollment": 371.0, "fid": 14203, "ft_teacher": 17, "globalid": "9df1dcae-ef1b-4d3f-af66-2c09a6be782f", "latitude": 37.7164146, "level_": "ELEMENTARY", "level_clean": "Elementary", "longitude": -122.4669987, "naics_code": "611110", "naics_desc": "ELEMENTARY AND SECONDARY SCHOOLS", "name": "ORTEGA (JOSE) ELEMENTARY", "ncesid": "063441005635", "population": 388, "shelter_id": "NOT AVAILABLE", "source": "https://nces.ed.gov/ccd/schoolsearch/school_list.asp?schoolid=063441005635", "source_dat": "Wed, 31 Jan 2024 00:00:00 GMT", "st_grade": "KG", "state": "CA", "status": "1", "telephone": "(415) 469-4726", "type": "1", "val_date": "Tue, 23 Feb 2016 00:00:00 GMT", "val_method": "IMAGERY", "website": "NOT AVAILABLE", "zip": "94132", "zip4": "3152", "school_id": 102 }, "geometry": { "type": "Point", "coordinates": [ -122.466998723411919, 37.716414598055245 ] } },
{ "type": "Feature", "properties": { "address": "625 HOLLY PARK CIR.", "city": "SAN FRANCISCO", "country": "USA", "county": "SAN FRANCISCO", "countyfips": "06075", "districtid": "0634410", "end_grade": "05", "enrollment": 253.0, "fid": 14204, "ft_teacher": 12, "globalid": "c0536b82-39f8-4f3f-afa6-54193600d562", "latitude": 37.7370837, "level_": "ELEMENTARY", "level_clean": "Elementary", "longitude": -122.4215168, "naics_code": "611110", "naics_desc": "ELEMENTARY AND SECONDARY SCHOOLS", "name": "SERRA (JUNIPERO) ELEMENTARY", "ncesid": "063441005636", "population": 265, "shelter_id": "NOT AVAILABLE", "source": "https://nces.ed.gov/ccd/schoolsearch/school_list.asp?schoolid=063441005636", "source_dat": "Wed, 31 Jan 2024 00:00:00 GMT", "st_grade": "KG", "state": "CA", "status": "1", "telephone": "(415) 695-5685", "type": "1", "val_date": "Tue, 23 Feb 2016 00:00:00 GMT", "val_method": "IMAGERY/OTHER", "website": "NOT AVAILABLE", "zip": "94110", "zip4": "5815", "school_id": 103 }, "geometry": { "type": "Point", "coordinates": [ -122.421516808653593, 37.737083724734106 ] } },
{ "type": "Feature", "properties": { "address": "4545 ANZA ST.", "city": "SAN FRANCISCO", "country": "USA", "county": "SAN FRANCISCO", "countyfips": "06075", "districtid": "0634410", "end_grade": "05", "enrollment": 502.0, "fid": 14205, "ft_teacher": 22, "globalid": "e7903e7a-1379-402f-a22f-5b2584222e01", "latitude": 37.7774682, "level_": "ELEMENTARY", "level_clean": "Elementary", "longitude": -122.4969551, "naics_code": "611110", "naics_desc": "ELEMENTARY AND SECONDARY SCHOOLS", "name": "LAFAYETTE ELEMENTARY", "ncesid": "063441005637", "population": 524, "shelter_id": "NOT AVAILABLE", "source": "https://nces.ed.gov/ccd/schoolsearch/school_list.asp?schoolid=063441005637", "source_dat": "Wed, 31 Jan 2024 00:00:00 GMT", "st_grade": "KG", "state": "CA", "status": "1", "telephone": "(415) 750-8483", "type": "1", "val_date": "Tue, 23 Feb 2016 00:00:00 GMT", "val_method": "IMAGERY", "website": "NOT AVAILABLE", "zip": "94121", "zip4": "2621", "school_id": 104 }, "geometry": { "type": "Point", "coordinates": [ -122.496955090405109, 37.777468247061996 ] } },
{ "type": "Feature", "properties": { "address": "220 MIDFIELD DR.", "city": "SAN FRANCISCO", "country": "USA", "county": "SAN FRANCISCO", "countyfips": "06075", "districtid": "0634410", "end_grade": "05", "enrollment": 402.0, "fid": 14206, "ft_teacher": 20, "globalid": "febfa6d1-c14c-4038-9067-ee4805edc636", "latitude": 37.7303304, "level_": "ELEMENTARY", "level_clean": "Elementary", "longitude": -122.4859104, "naics_code": "611110", "naics_desc": "ELEMENTARY AND SECONDARY SCHOOLS", "name": "LAKESHORE ALTERNATIVE ELEMENTARY", "ncesid": "063441005638", "population": 422, "shelter_id": "NOT AVAILABLE", "source": "https://nces.ed.gov/ccd/schoolsearch/school_list.asp?schoolid=063441005638", "source_dat": "Wed, 31 Jan 2024 00:00:00 GMT", "st_grade": "KG", "state": "CA", "status": "1", "telephone": "(415) 759-2825", "type": "1", "val_date": "Tue, 23 Feb 2016 00:00:00 GMT", "val_method": "IMAGERY/OTHER", "website": "NOT AVAILABLE", "zip": "94132", "zip4": "1418", "school_id": 105 }, "geometry": { "type": "Point", "coordinates": [ -122.485910409337691, 37.730330385439011 ] } },
{ "type": "Feature", "properties": { "address": "1570 31ST AVE.", "city": "SAN FRANCISCO", "country": "USA", "county": "SAN FRANCISCO", "countyfips": "06075", "districtid": "0634410", "end_grade": "08", "enrollment": 597.0, "fid": 14207, "ft_teacher": 29, "globalid": "67a1a030-ee0c-4891-9b7d-b8b77afb6ce1", "latitude": 37.7579858, "level_": "ELEMENTARY", "level_clean": "Elementary", "longitude": -122.4893951, "naics_code": "611110", "naics_desc": "ELEMENTARY AND SECONDARY SCHOOLS", "name": "LAWTON ALTERNATIVE", "ncesid": "063441005639", "population": 626, "shelter_id": "NOT AVAILABLE", "source": "https://nces.ed.gov/ccd/schoolsearch/school_list.asp?schoolid=063441005639", "source_dat": "Wed, 31 Jan 2024 00:00:00 GMT", "st_grade": "KG", "state": "CA", "status": "1", "telephone": "(415) 759-2832", "type": "1", "val_date": "Tue, 23 Feb 2016 00:00:00 GMT", "val_method": "IMAGERY/OTHER", "website": "NOT AVAILABLE", "zip": "94122", "zip4": "3104", "school_id": 106 }, "geometry": { "type": "Point", "coordinates": [ -122.489395091609737, 37.757985828882923 ] } },
{ "type": "Feature", "properties": { "address": "3125 CESAR CHAVEZ ST.", "city": "SAN FRANCISCO", "country": "USA", "county": "SAN FRANCISCO", "countyfips": "06075", "districtid": "0634410", "end_grade": "05", "enrollment": 416.0, "fid": 14208, "ft_teacher": 20, "globalid": "b4905679-512f-4669-982a-c58efa9c5364", "latitude": 37.7477388, "level_": "ELEMENTARY", "level_clean": "Elementary", "longitude": -122.4120599, "naics_code": "611110", "naics_desc": "ELEMENTARY AND SECONDARY SCHOOLS", "name": "FLYNN (LEONARD R.) ELEMENTARY", "ncesid": "063441005640", "population": 436, "shelter_id": "NOT AVAILABLE", "source": "https://nces.ed.gov/ccd/schoolsearch/school_list.asp?schoolid=063441005640", "source_dat": "Wed, 31 Jan 2024 00:00:00 GMT", "st_grade": "KG", "state": "CA", "status": "1", "telephone": "(415) 695-5770", "type": "1", "val_date": "Tue, 23 Feb 2016 00:00:00 GMT", "val_method": "IMAGERY", "website": "NOT AVAILABLE", "zip": "94110", "zip4": "4722", "school_id": 107 }, "geometry": { "type": "Point", "coordinates": [ -122.412059929222167, 37.747738787115388 ] } },
{ "type": "Feature", "properties": { "address": "755 MORSE ST.", "city": "SAN FRANCISCO", "country": "USA", "county": "SAN FRANCISCO", "countyfips": "06075", "districtid": "0634410", "end_grade": "05", "enrollment": 451.0, "fid": 14209, "ft_teacher": 19, "globalid": "37700cb1-5907-4e79-b90b-33148c2d141f", "latitude": 37.7105112, "level_": "ELEMENTARY", "level_clean": "Elementary", "longitude": -122.4472153, "naics_code": "611110", "naics_desc": "ELEMENTARY AND SECONDARY SCHOOLS", "name": "LONGFELLOW ELEMENTARY", "ncesid": "063441005641", "population": 470, "shelter_id": "NOT AVAILABLE", "source": "https://nces.ed.gov/ccd/schoolsearch/school_list.asp?schoolid=063441005641", "source_dat": "Wed, 31 Jan 2024 00:00:00 GMT", "st_grade": "KG", "state": "CA", "status": "1", "telephone": "(415) 469-4730", "type": "1", "val_date": "Tue, 08 Jun 2010 00:00:00 GMT", "val_method": "IMAGERY", "website": "NOT AVAILABLE", "zip": "94112", "zip4": "4223", "school_id": 108 }, "geometry": { "type": "Point", "coordinates": [ -122.447215314734706, 37.710511160361847 ] } },
{ "type": "Feature", "properties": { "address": "1101 EUCALYPTUS DR.", "city": "SAN FRANCISCO", "country": "USA", "county": "SAN FRANCISCO", "countyfips": "06075", "districtid": "0634410", "end_grade": "12", "enrollment": 2632.0, "fid": 14210, "ft_teacher": 110, "globalid": "2c0656a2-12ae-4339-8f80-3e6c4df37eb1", "latitude": 37.7303776, "level_": "HIGH", "level_clean": "High", "longitude": -122.4829569, "naics_code": "611110", "naics_desc": "ELEMENTARY AND SECONDARY SCHOOLS", "name": "LOWELL HIGH", "ncesid": "063441005643", "population": 2742, "shelter_id": "NOT AVAILABLE", "source": "https://nces.ed.gov/ccd/schoolsearch/school_list.asp?schoolid=063441005643", "source_dat": "Wed, 31 Jan 2024 00:00:00 GMT", "st_grade": "09", "state": "CA", "status": "1", "telephone": "(415) 759-2730", "type": "1", "val_date": "Mon, 07 Jun 2010 00:00:00 GMT", "val_method": "IMAGERY", "website": "NOT AVAILABLE", "zip": "94132", "zip4": "1401", "school_id": 109 }, "geometry": { "type": "Point", "coordinates": [ -122.482956878357115, 37.730377572866743 ] } },
{ "type": "Feature", "properties": { "address": "3500 FILLMORE ST.", "city": "SAN FRANCISCO", "country": "USA", "county": "SAN FRANCISCO", "countyfips": "06075", "districtid": "0634410", "end_grade": "08", "enrollment": 676.0, "fid": 14211, "ft_teacher": 29, "globalid": "86359f09-4c34-4634-9483-f89a529876c4", "latitude": 37.8017976, "level_": "MIDDLE", "level_clean": "Middle", "longitude": -122.4361504, "naics_code": "611110", "naics_desc": "ELEMENTARY AND SECONDARY SCHOOLS", "name": "MARINA MIDDLE", "ncesid": "063441005645", "population": 705, "shelter_id": "10780498", "source": "https://nces.ed.gov/ccd/schoolsearch/school_list.asp?schoolid=063441005645", "source_dat": "Wed, 31 Jan 2024 00:00:00 GMT", "st_grade": "06", "state": "CA", "status": "1", "telephone": "(415) 749-3495", "type": "1", "val_date": "Tue, 23 Feb 2016 00:00:00 GMT", "val_method": "IMAGERY", "website": "NOT AVAILABLE", "zip": "94123", "zip4": "2103", "school_id": 110 }, "geometry": { "type": "Point", "coordinates": [ -122.436150398022278, 37.801797567703645 ] } },
{ "type": "Feature", "properties": { "address": "1575 15TH ST.", "city": "SAN FRANCISCO", "country": "USA", "county": "SAN FRANCISCO", "countyfips": "06075", "districtid": "0634410", "end_grade": "05", "enrollment": 233.0, "fid": 14212, "ft_teacher": 9, "globalid": "33d3685b-0c09-4d9a-ab40-78ccde057785", "latitude": 37.766442, "level_": "ELEMENTARY", "level_clean": "Elementary", "longitude": -122.4191866, "naics_code": "611110", "naics_desc": "ELEMENTARY AND SECONDARY SCHOOLS", "name": "MARSHALL ELEMENTARY", "ncesid": "063441005646", "population": 242, "shelter_id": "NOT AVAILABLE", "source": "https://nces.ed.gov/ccd/schoolsearch/school_list.asp?schoolid=063441005646", "source_dat": "Wed, 31 Jan 2024 00:00:00 GMT", "st_grade": "KG", "state": "CA", "status": "1", "telephone": "(415) 241-6280", "type": "1", "val_date": "Tue, 23 Feb 2016 00:00:00 GMT", "val_method": "IMAGERY/OTHER", "website": "NOT AVAILABLE", "zip": "94103", "zip4": "3639", "school_id": 111 }, "geometry": { "type": "Point", "coordinates": [ -122.419186563608875, 37.766441967023205 ] } },
{ "type": "Feature", "properties": { "address": "1025 14TH ST.", "city": "SAN FRANCISCO", "country": "USA", "county": "SAN FRANCISCO", "countyfips": "06075", "districtid": "0634410", "end_grade": "05", "enrollment": 253.0, "fid": 14213, "ft_teacher": 12, "globalid": "188f95a9-f2c2-45c9-89e5-597b67ab2e7e", "latitude": 37.7669867, "level_": "ELEMENTARY", "level_clean": "Elementary", "longitude": -122.4364351, "naics_code": "611110", "naics_desc": "ELEMENTARY AND SECONDARY SCHOOLS", "name": "MCKINLEY ELEMENTARY", "ncesid": "063441005647", "population": 265, "shelter_id": "NOT AVAILABLE", "source": "https://nces.ed.gov/ccd/schoolsearch/school_list.asp?schoolid=063441005647", "source_dat": "Wed, 31 Jan 2024 00:00:00 GMT", "st_grade": "KG", "state": "CA", "status": "1", "telephone": "(415) 241-6300", "type": "1", "val_date": "Tue, 23 Feb 2016 00:00:00 GMT", "val_method": "IMAGERY/OTHER", "website": "NOT AVAILABLE", "zip": "94114", "zip4": "1221", "school_id": 112 }, "geometry": { "type": "Point", "coordinates": [ -122.436435071221695, 37.76698667019869 ] } },
{ "type": "Feature", "properties": { "address": "175 OMAR WAY", "city": "SAN FRANCISCO", "country": "USA", "county": "SAN FRANCISCO", "countyfips": "06075", "districtid": "0634410", "end_grade": "05", "enrollment": 351.0, "fid": 14214, "ft_teacher": 16, "globalid": "6d075a97-6eca-45a8-9865-1769798cb650", "latitude": 37.7389868, "level_": "ELEMENTARY", "level_clean": "Elementary", "longitude": -122.4502293, "naics_code": "611110", "naics_desc": "ELEMENTARY AND SECONDARY SCHOOLS", "name": "MIRALOMA ELEMENTARY", "ncesid": "063441005648", "population": 367, "shelter_id": "NOT AVAILABLE", "source": "https://nces.ed.gov/ccd/schoolsearch/school_list.asp?schoolid=063441005648", "source_dat": "Wed, 31 Jan 2024 00:00:00 GMT", "st_grade": "KG", "state": "CA", "status": "1", "telephone": "(415) 469-4734", "type": "1", "val_date": "Tue, 08 Jun 2010 00:00:00 GMT", "val_method": "IMAGERY", "website": "NOT AVAILABLE", "zip": "94127", "zip4": "1701", "school_id": 113 }, "geometry": { "type": "Point", "coordinates": [ -122.45022928465329, 37.738986772921308 ] } },
{ "type": "Feature", "properties": { "address": "1670 NOE ST.", "city": "SAN FRANCISCO", "country": "USA", "county": "SAN FRANCISCO", "countyfips": "06075", "districtid": "0634410", "end_grade": "05", "enrollment": 141.0, "fid": 14215, "ft_teacher": 6, "globalid": "8646c18a-0497-4faf-8e3f-e864e0db58c0", "latitude": 37.7421684, "level_": "ELEMENTARY", "level_clean": "Elementary", "longitude": -122.431348, "naics_code": "611110", "naics_desc": "ELEMENTARY AND SECONDARY SCHOOLS", "name": "MISSION EDUCATION CENTER", "ncesid": "063441005649", "population": 147, "shelter_id": "NOT AVAILABLE", "source": "https://nces.ed.gov/ccd/schoolsearch/school_list.asp?schoolid=063441005649", "source_dat": "Wed, 31 Jan 2024 00:00:00 GMT", "st_grade": "KG", "state": "CA", "status": "1", "telephone": "(415) 695-5313", "type": "1", "val_date": "Tue, 23 Feb 2016 00:00:00 GMT", "val_method": "IMAGERY/OTHER", "website": "NOT AVAILABLE", "zip": "94131", "zip4": "2357", "school_id": 114 }, "geometry": { "type": "Point", "coordinates": [ -122.431348028188467, 37.742168361180951 ] } },
{ "type": "Feature", "properties": { "address": "3750 18TH ST.", "city": "SAN FRANCISCO", "country": "USA", "county": "SAN FRANCISCO", "countyfips": "06075", "districtid": "0634410", "end_grade": "12", "enrollment": 1041.0, "fid": 14216, "ft_teacher": 55, "globalid": "c7cabaf1-714b-4ecc-b32f-f61e53e820ce", "latitude": 37.761619, "level_": "HIGH", "level_clean": "High", "longitude": -122.4273211, "naics_code": "611110", "naics_desc": "ELEMENTARY AND SECONDARY SCHOOLS", "name": "MISSION HIGH", "ncesid": "063441005650", "population": 1096, "shelter_id": "10780997", "source": "https://nces.ed.gov/ccd/schoolsearch/school_list.asp?schoolid=063441005650", "source_dat": "Wed, 31 Jan 2024 00:00:00 GMT", "st_grade": "09", "state": "CA", "status": "1", "telephone": "(415) 241-6240", "type": "1", "val_date": "Tue, 23 Feb 2016 00:00:00 GMT", "val_method": "IMAGERY", "website": "NOT AVAILABLE", "zip": "94114", "zip4": "2614", "school_id": 115 }, "geometry": { "type": "Point", "coordinates": [ -122.427321073608425, 37.761619025197859 ] } },
{ "type": "Feature", "properties": { "address": "260 MADRID ST.", "city": "SAN FRANCISCO", "country": "USA", "county": "SAN FRANCISCO", "countyfips": "06075", "districtid": "0634410", "end_grade": "05", "enrollment": 528.0, "fid": 14217, "ft_teacher": 20, "globalid": "9d3dc729-8d43-481c-b3a1-f85dee87d83c", "latitude": 37.7255225, "level_": "ELEMENTARY", "level_clean": "Elementary", "longitude": -122.4304212, "naics_code": "611110", "naics_desc": "ELEMENTARY AND SECONDARY SCHOOLS", "name": "MONROE ELEMENTARY", "ncesid": "063441005651", "population": 548, "shelter_id": "NOT AVAILABLE", "source": "https://nces.ed.gov/ccd/schoolsearch/school_list.asp?schoolid=063441005651", "source_dat": "Wed, 31 Jan 2024 00:00:00 GMT", "st_grade": "KG", "state": "CA", "status": "1", "telephone": "(415) 469-4736", "type": "1", "val_date": "Tue, 23 Feb 2016 00:00:00 GMT", "val_method": "IMAGERY", "website": "NOT AVAILABLE", "zip": "94112", "zip4": "2055", "school_id": 116 }, "geometry": { "type": "Point", "coordinates": [ -122.430421198579722, 37.725522482976245 ] } },
{ "type": "Feature", "properties": { "address": "2049 GROVE ST.", "city": "SAN FRANCISCO", "country": "USA", "county": "SAN FRANCISCO", "countyfips": "06075", "districtid": "0634410", "end_grade": "05", "enrollment": 256.0, "fid": 14218, "ft_teacher": 9, "globalid": "8602a72b-210f-4c41-9f5a-4fb57081d57b", "latitude": 37.774031, "level_": "ELEMENTARY", "level_clean": "Elementary", "longitude": -122.4502887, "naics_code": "611110", "naics_desc": "ELEMENTARY AND SECONDARY SCHOOLS", "name": "NEW TRADITIONS ELEMENTARY", "ncesid": "063441005652", "population": 265, "shelter_id": "NOT AVAILABLE", "source": "https://nces.ed.gov/ccd/schoolsearch/school_list.asp?schoolid=063441005652", "source_dat": "Wed, 31 Jan 2024 00:00:00 GMT", "st_grade": "KG", "state": "CA", "status": "1", "telephone": "(415) 750-8490", "type": "1", "val_date": "Tue, 23 Feb 2016 00:00:00 GMT", "val_method": "IMAGERY", "website": "NOT AVAILABLE", "zip": "94117", "zip4": "1123", "school_id": 117 }, "geometry": { "type": "Point", "coordinates": [ -122.450288710955476, 37.774031005826309 ] } },
{ "type": "Feature", "properties": { "address": "1099 HAYES ST.", "city": "SAN FRANCISCO", "country": "USA", "county": "SAN FRANCISCO", "countyfips": "06075", "districtid": "0634410", "end_grade": "12", "enrollment": 152.0, "fid": 14219, "ft_teacher": 14, "globalid": "8cb4b342-9751-4096-bdce-ae1d704210e3", "latitude": 37.775144, "level_": "HIGH", "level_clean": "High", "longitude": -122.4340999, "naics_code": "611110", "naics_desc": "ELEMENTARY AND SECONDARY SCHOOLS", "name": "WELLS (IDA B.) HIGH", "ncesid": "063441005653", "population": 166, "shelter_id": "NOT AVAILABLE", "source": "https://nces.ed.gov/ccd/schoolsearch/school_list.asp?schoolid=063441005653", "source_dat": "Wed, 31 Jan 2024 00:00:00 GMT", "st_grade": "09", "state": "CA", "status": "1", "telephone": "(415) 241-6315", "type": "4", "val_date": "Tue, 08 Jun 2010 00:00:00 GMT", "val_method": "IMAGERY", "website": "NOT AVAILABLE", "zip": "94117", "zip4": "1621", "school_id": 118 }, "geometry": { "type": "Point", "coordinates": [ -122.434099853824904, 37.77514399420005 ] } },
{ "type": "Feature", "properties": { "address": "555 TOMPKINS AVE.", "city": "SAN FRANCISCO", "country": "USA", "county": "SAN FRANCISCO", "countyfips": "06075", "districtid": "0634410", "end_grade": "08", "enrollment": 459.0, "fid": 14220, "ft_teacher": 30, "globalid": "f7adb0cb-0bca-4bb6-b3af-6d2fda3d0718", "latitude": 37.7367154, "level_": "ELEMENTARY", "level_clean": "Elementary", "longitude": -122.4126839, "naics_code": "611110", "naics_desc": "ELEMENTARY AND SECONDARY SCHOOLS", "name": "REVERE (PAUL) ELEMENTARY", "ncesid": "063441005654", "population": 489, "shelter_id": "NOT AVAILABLE", "source": "https://nces.ed.gov/ccd/schoolsearch/school_list.asp?schoolid=063441005654", "source_dat": "Wed, 31 Jan 2024 00:00:00 GMT", "st_grade": "KG", "state": "CA", "status": "1", "telephone": "(415) 695-5656", "type": "1", "val_date": "Tue, 23 Feb 2016 00:00:00 GMT", "val_method": "IMAGERY/OTHER", "website": "NOT AVAILABLE", "zip": "94110", "zip4": "6144", "school_id": 119 }, "geometry": { "type": "Point", "coordinates": [ -122.412683888750777, 37.736715355229563 ] } },
{ "type": "Feature", "properties": { "address": "350 GIRARD ST.", "city": "SAN FRANCISCO", "country": "USA", "county": "SAN FRANCISCO", "countyfips": "06075", "districtid": "0634410", "end_grade": "08", "enrollment": 366.0, "fid": 14221, "ft_teacher": 20, "globalid": "d57fe1ec-37c1-481c-a538-7b49cd3a9961", "latitude": 37.727766, "level_": "MIDDLE", "level_clean": "Middle", "longitude": -122.4051495, "naics_code": "611110", "naics_desc": "ELEMENTARY AND SECONDARY SCHOOLS", "name": "KING JR. (MARTIN LUTHER) ACADEMIC MIDDLE", "ncesid": "063441005655", "population": 386, "shelter_id": "10780500", "source": "https://nces.ed.gov/ccd/schoolsearch/school_list.asp?schoolid=063441005655", "source_dat": "Wed, 31 Jan 2024 00:00:00 GMT", "st_grade": "06", "state": "CA", "status": "1", "telephone": "(415) 330-1500", "type": "1", "val_date": "Tue, 08 Jun 2010 00:00:00 GMT", "val_method": "IMAGERY", "website": "NOT AVAILABLE", "zip": "94134", "zip4": "1469", "school_id": 120 }, "geometry": { "type": "Point", "coordinates": [ -122.405149533223963, 37.727765990208326 ] } },
{ "type": "Feature", "properties": { "address": "450 30TH AVE.", "city": "SAN FRANCISCO", "country": "USA", "county": "SAN FRANCISCO", "countyfips": "06075", "districtid": "0634410", "end_grade": "08", "enrollment": 978.0, "fid": 14222, "ft_teacher": 40, "globalid": "ece1fbbb-5a23-464d-ae6d-b895f7f082d3", "latitude": 37.7811796, "level_": "MIDDLE", "level_clean": "Middle", "longitude": -122.4894152, "naics_code": "611110", "naics_desc": "ELEMENTARY AND SECONDARY SCHOOLS", "name": "PRESIDIO MIDDLE", "ncesid": "063441005657", "population": 1018, "shelter_id": "10780999", "source": "https://nces.ed.gov/ccd/schoolsearch/school_list.asp?schoolid=063441005657", "source_dat": "Wed, 31 Jan 2024 00:00:00 GMT", "st_grade": "06", "state": "CA", "status": "1", "telephone": "(415) 750-8435", "type": "1", "val_date": "Mon, 07 Jun 2010 00:00:00 GMT", "val_method": "IMAGERY", "website": "NOT AVAILABLE", "zip": "94121", "zip4": "1766", "school_id": 121 }, "geometry": { "type": "Point", "coordinates": [ -122.489415221135872, 37.781179634032888 ] } },
{ "type": "Feature", "properties": { "address": "1501 O'FARRELL ST.", "city": "SAN FRANCISCO", "country": "USA", "county": "SAN FRANCISCO", "countyfips": "06075", "districtid": "0634410", "end_grade": "05", "enrollment": 385.0, "fid": 14223, "ft_teacher": 18, "globalid": "b67dec42-7364-430e-b69a-3cf5ad18bccc", "latitude": 37.7831483, "level_": "ELEMENTARY", "level_clean": "Elementary", "longitude": -122.4295369, "naics_code": "611110", "naics_desc": "ELEMENTARY AND SECONDARY SCHOOLS", "name": "PARKS (ROSA) ELEMENTARY", "ncesid": "063441005658", "population": 403, "shelter_id": "NOT AVAILABLE", "source": "https://nces.ed.gov/ccd/schoolsearch/school_list.asp?schoolid=063441005658", "source_dat": "Wed, 31 Jan 2024 00:00:00 GMT", "st_grade": "KG", "state": "CA", "status": "1", "telephone": "(415) 749-3519", "type": "1", "val_date": "Sun, 17 Feb 2019 00:00:00 GMT", "val_method": "IMAGERY", "website": "NOT AVAILABLE", "zip": "94115", "zip4": "3762", "school_id": 122 }, "geometry": { "type": "Point", "coordinates": [ -122.429536860138185, 37.783148312044993 ] } },
{ "type": "Feature", "properties": { "address": "1421 PINE ST.", "city": "SAN FRANCISCO", "country": "USA", "county": "SAN FRANCISCO", "countyfips": "06075", "districtid": "0634410", "end_grade": "05", "enrollment": 230.0, "fid": 14224, "ft_teacher": 11, "globalid": "aa971052-c193-449b-929f-a5d3f1320be0", "latitude": 37.7895985, "level_": "ELEMENTARY", "level_clean": "Elementary", "longitude": -122.4192519, "naics_code": "611110", "naics_desc": "ELEMENTARY AND SECONDARY SCHOOLS", "name": "REDDING ELEMENTARY", "ncesid": "063441005659", "population": 241, "shelter_id": "NOT AVAILABLE", "source": "https://nces.ed.gov/ccd/schoolsearch/school_list.asp?schoolid=063441005659", "source_dat": "Wed, 31 Jan 2024 00:00:00 GMT", "st_grade": "KG", "state": "CA", "status": "1", "telephone": "(415) 749-3525", "type": "1", "val_date": "Tue, 23 Feb 2016 00:00:00 GMT", "val_method": "IMAGERY/OTHER", "website": "NOT AVAILABLE", "zip": "94109", "zip4": "4719", "school_id": 123 }, "geometry": { "type": "Point", "coordinates": [ -122.419251895758279, 37.789598458402132 ] } },
{ "type": "Feature", "properties": { "address": "2051 34TH AVE.", "city": "SAN FRANCISCO", "country": "USA", "county": "SAN FRANCISCO", "countyfips": "06075", "districtid": "0634410", "end_grade": "05", "enrollment": 437.0, "fid": 14225, "ft_teacher": 20, "globalid": "a2cbe5e6-c09b-417c-bf39-d47588a72987", "latitude": 37.748732, "level_": "ELEMENTARY", "level_clean": "Elementary", "longitude": -122.4924584, "naics_code": "611110", "naics_desc": "ELEMENTARY AND SECONDARY SCHOOLS", "name": "STEVENSON (ROBERT LOUIS) ELEMENTARY", "ncesid": "063441005660", "population": 457, "shelter_id": "NOT AVAILABLE", "source": "https://nces.ed.gov/ccd/schoolsearch/school_list.asp?schoolid=063441005660", "source_dat": "Wed, 31 Jan 2024 00:00:00 GMT", "st_grade": "KG", "state": "CA", "status": "1", "telephone": "(415) 759-2837", "type": "1", "val_date": "Tue, 08 Jun 2010 00:00:00 GMT", "val_method": "IMAGERY", "website": "NOT AVAILABLE", "zip": "94116", "zip4": "1109", "school_id": 124 }, "geometry": { "type": "Point", "coordinates": [ -122.492458372255996, 37.748732043349165 ] } },
{ "type": "Feature", "properties": { "address": "443 BURNETT AVE.", "city": "SAN FRANCISCO", "country": "USA", "county": "SAN FRANCISCO", "countyfips": "06075", "districtid": "0634410", "end_grade": "08", "enrollment": 536.0, "fid": 14226, "ft_teacher": 24, "globalid": "fba79fdf-08f3-4850-9aa4-9743af892671", "latitude": 37.7549563, "level_": "ELEMENTARY", "level_clean": "Elementary", "longitude": -122.443558, "naics_code": "611110", "naics_desc": "ELEMENTARY AND SECONDARY SCHOOLS", "name": "ROOFTOP ELEMENTARY", "ncesid": "063441005661", "population": 560, "shelter_id": "NOT AVAILABLE", "source": "https://nces.ed.gov/ccd/schoolsearch/school_list.asp?schoolid=063441005661", "source_dat": "Wed, 31 Jan 2024 00:00:00 GMT", "st_grade": "KG", "state": "CA", "status": "1", "telephone": "(415) 695-5692", "type": "1", "val_date": "Tue, 08 Jun 2010 00:00:00 GMT", "val_method": "IMAGERY", "website": "NOT AVAILABLE", "zip": "94131", "zip4": "1330", "school_id": 125 }, "geometry": { "type": "Point", "coordinates": [ -122.44355802738103, 37.754956277310399 ] } },
{ "type": "Feature", "properties": { "address": "460 ARGUELLO BLVD.", "city": "SAN FRANCISCO", "country": "USA", "county": "SAN FRANCISCO", "countyfips": "06075", "districtid": "0634410", "end_grade": "08", "enrollment": 666.0, "fid": 14227, "ft_teacher": 32, "globalid": "4923131e-383b-4b8e-8c02-2169a005a4a1", "latitude": 37.7821772, "level_": "MIDDLE", "level_clean": "Middle", "longitude": -122.4586387, "naics_code": "611110", "naics_desc": "ELEMENTARY AND SECONDARY SCHOOLS", "name": "ROOSEVELT MIDDLE", "ncesid": "063441005662", "population": 698, "shelter_id": "NOT AVAILABLE", "source": "https://nces.ed.gov/ccd/schoolsearch/school_list.asp?schoolid=063441005662", "source_dat": "Wed, 31 Jan 2024 00:00:00 GMT", "st_grade": "06", "state": "CA", "status": "1", "telephone": "(415) 750-8446", "type": "1", "val_date": "Tue, 08 Jun 2010 00:00:00 GMT", "val_method": "IMAGERY", "website": "NOT AVAILABLE", "zip": "94118", "zip4": "2505", "school_id": 126 }, "geometry": { "type": "Point", "coordinates": [ -122.458638655349546, 37.782177223200371 ] } },
{ "type": "Feature", "properties": { "address": "125 EXCELSIOR AVE.", "city": "SAN FRANCISCO", "country": "USA", "county": "SAN FRANCISCO", "countyfips": "06075", "districtid": "0634410", "end_grade": "08", "enrollment": 275.0, "fid": 14228, "ft_teacher": 12, "globalid": "565dac46-18e9-422a-82b3-a781f0e4e271", "latitude": 37.7260123, "level_": "ELEMENTARY", "level_clean": "Elementary", "longitude": -122.4323105, "naics_code": "611110", "naics_desc": "ELEMENTARY AND SECONDARY SCHOOLS", "name": "SAN FRANCISCO COMMUNITY ALTERNATIVE", "ncesid": "063441005663", "population": 287, "shelter_id": "NOT AVAILABLE", "source": "https://nces.ed.gov/ccd/schoolsearch/school_list.asp?schoolid=063441005663", "source_dat": "Wed, 31 Jan 2024 00:00:00 GMT", "st_grade": "KG", "state": "CA", "status": "1", "telephone": "(415) 469-4739", "type": "1", "val_date": "Tue, 23 Feb 2016 00:00:00 GMT", "val_method": "IMAGERY/OTHER", "website": "NOT AVAILABLE", "zip": "94112", "zip4": "2041", "school_id": 127 }, "geometry": { "type": "Point", "coordinates": [ -122.432310496132203, 37.726012298728648 ] } },
{ "type": "Feature", "properties": { "address": "325 SANCHEZ ST.", "city": "SAN FRANCISCO", "country": "USA", "county": "SAN FRANCISCO", "countyfips": "06075", "districtid": "0634410", "end_grade": "05", "enrollment": 262.0, "fid": 14229, "ft_teacher": 13, "globalid": "5a18e6fc-a796-4162-93c4-00b8ef75b004", "latitude": 37.7635027, "level_": "ELEMENTARY", "level_clean": "Elementary", "longitude": -122.4305621, "naics_code": "611110", "naics_desc": "ELEMENTARY AND SECONDARY SCHOOLS", "name": "SANCHEZ ELEMENTARY", "ncesid": "063441005664", "population": 275, "shelter_id": "10780502", "source": "https://nces.ed.gov/ccd/schoolsearch/school_list.asp?schoolid=063441005664", "source_dat": "Wed, 31 Jan 2024 00:00:00 GMT", "st_grade": "KG", "state": "CA", "status": "1", "telephone": "(415) 241-6380", "type": "1", "val_date": "Tue, 23 Feb 2016 00:00:00 GMT", "val_method": "IMAGERY/OTHER", "website": "NOT AVAILABLE", "zip": "94114", "zip4": "1615", "school_id": 128 }, "geometry": { "type": "Point", "coordinates": [ -122.430562111551794, 37.763502744256314 ] } },
{ "type": "Feature", "properties": { "address": "500 CLARENDON AVE.", "city": "SAN FRANCISCO", "country": "USA", "county": "SAN FRANCISCO", "countyfips": "06075", "districtid": "0634410", "end_grade": "05", "enrollment": 523.0, "fid": 14230, "ft_teacher": 19, "globalid": "e0c0b646-974c-4803-bec4-a815ba750ba3", "latitude": 37.753725, "level_": "ELEMENTARY", "level_clean": "Elementary", "longitude": -122.4562406, "naics_code": "611110", "naics_desc": "ELEMENTARY AND SECONDARY SCHOOLS", "name": "CLARENDON ALTERNATIVE ELEMENTARY", "ncesid": "063441005666", "population": 542, "shelter_id": "NOT AVAILABLE", "source": "https://nces.ed.gov/ccd/schoolsearch/school_list.asp?schoolid=063441005666", "source_dat": "Wed, 31 Jan 2024 00:00:00 GMT", "st_grade": "KG", "state": "CA", "status": "1", "telephone": "(415) 759-2796", "type": "1", "val_date": "Tue, 23 Feb 2016 00:00:00 GMT", "val_method": "IMAGERY/OTHER", "website": "NOT AVAILABLE", "zip": "94131", "zip4": "1113", "school_id": 129 }, "geometry": { "type": "Point", "coordinates": [ -122.456240644589712, 37.753724978624945 ] } },
{ "type": "Feature", "properties": { "address": "431 CAPITOL AVE.", "city": "SAN FRANCISCO", "country": "USA", "county": "SAN FRANCISCO", "countyfips": "06075", "districtid": "0634410", "end_grade": "05", "enrollment": 183.0, "fid": 14231, "ft_teacher": 8, "globalid": "d943e662-d0df-49af-80e2-486574eb2004", "latitude": 37.7143898, "level_": "ELEMENTARY", "level_clean": "Elementary", "longitude": -122.4595164, "naics_code": "611110", "naics_desc": "ELEMENTARY AND SECONDARY SCHOOLS", "name": "SHERIDAN ELEMENTARY", "ncesid": "063441005667", "population": 191, "shelter_id": "NOT AVAILABLE", "source": "https://nces.ed.gov/ccd/schoolsearch/school_list.asp?schoolid=063441005667", "source_dat": "Wed, 31 Jan 2024 00:00:00 GMT", "st_grade": "KG", "state": "CA", "status": "1", "telephone": "(415) 469-4743", "type": "1", "val_date": "Tue, 23 Feb 2016 00:00:00 GMT", "val_method": "IMAGERY", "website": "NOT AVAILABLE", "zip": "94112", "zip4": "2934", "school_id": 130 }, "geometry": { "type": "Point", "coordinates": [ -122.459516389169607, 37.714389848212988 ] } },
{ "type": "Feature", "properties": { "address": "1651 UNION ST.", "city": "SAN FRANCISCO", "country": "USA", "county": "SAN FRANCISCO", "countyfips": "06075", "districtid": "0634410", "end_grade": "05", "enrollment": 287.0, "fid": 14232, "ft_teacher": 15, "globalid": "27c8dc27-1e34-4e27-b00f-0e04ae1a5194", "latitude": 37.7980193, "level_": "ELEMENTARY", "level_clean": "Elementary", "longitude": -122.4265077, "naics_code": "611110", "naics_desc": "ELEMENTARY AND SECONDARY SCHOOLS", "name": "SHERMAN ELEMENTARY", "ncesid": "063441005668", "population": 302, "shelter_id": "NOT AVAILABLE", "source": "https://nces.ed.gov/ccd/schoolsearch/school_list.asp?schoolid=063441005668", "source_dat": "Wed, 31 Jan 2024 00:00:00 GMT", "st_grade": "KG", "state": "CA", "status": "1", "telephone": "(415) 749-3530", "type": "1", "val_date": "Tue, 23 Feb 2016 00:00:00 GMT", "val_method": "IMAGERY/OTHER", "website": "NOT AVAILABLE", "zip": "94123", "zip4": "4506", "school_id": 131 }, "geometry": { "type": "Point", "coordinates": [ -122.426507739340948, 37.798019317937239 ] } },
{ "type": "Feature", "properties": { "address": "350 HARBOR RD.", "city": "SAN FRANCISCO", "country": "USA", "county": "SAN FRANCISCO", "countyfips": "06075", "districtid": "0634410", "end_grade": "05", "enrollment": 102.0, "fid": 14233, "ft_teacher": 6, "globalid": "5ca83578-f0e0-4cc5-a661-81bde38f0fe2", "latitude": 37.7344511, "level_": "ELEMENTARY", "level_clean": "Elementary", "longitude": -122.3807145, "naics_code": "611110", "naics_desc": "ELEMENTARY AND SECONDARY SCHOOLS", "name": "MALCOLM X ACADEMY", "ncesid": "063441005669", "population": 108, "shelter_id": "NOT AVAILABLE", "source": "https://nces.ed.gov/ccd/schoolsearch/school_list.asp?schoolid=063441005669", "source_dat": "Wed, 31 Jan 2024 00:00:00 GMT", "st_grade": "KG", "state": "CA", "status": "1", "telephone": "(415) 695-5950", "type": "1", "val_date": "Tue, 08 Jun 2010 00:00:00 GMT", "val_method": "IMAGERY", "website": "NOT AVAILABLE", "zip": "94124", "zip4": "2474", "school_id": 132 }, "geometry": { "type": "Point", "coordinates": [ -122.380714496377152, 37.734451116825689 ] } },
{ "type": "Feature", "properties": { "address": "1451 JACKSON ST.", "city": "SAN FRANCISCO", "country": "USA", "county": "SAN FRANCISCO", "countyfips": "06075", "districtid": "0634410", "end_grade": "05", "enrollment": 228.0, "fid": 14234, "ft_teacher": 12, "globalid": "c1a39753-65f4-40ec-82df-c0d17a1eb294", "latitude": 37.7938814, "level_": "ELEMENTARY", "level_clean": "Elementary", "longitude": -122.418881, "naics_code": "611110", "naics_desc": "ELEMENTARY AND SECONDARY SCHOOLS", "name": "SPRING VALLEY ELEMENTARY", "ncesid": "063441005670", "population": 240, "shelter_id": "NOT AVAILABLE", "source": "https://nces.ed.gov/ccd/schoolsearch/school_list.asp?schoolid=063441005670", "source_dat": "Wed, 31 Jan 2024 00:00:00 GMT", "st_grade": "KG", "state": "CA", "status": "1", "telephone": "(415) 749-3535", "type": "1", "val_date": "Tue, 23 Feb 2016 00:00:00 GMT", "val_method": "IMAGERY/OTHER", "website": "NOT AVAILABLE", "zip": "94109", "zip4": "3115", "school_id": 133 }, "geometry": { "type": "Point", "coordinates": [ -122.418880957790378, 37.793881350144225 ] } },
{ "type": "Feature", "properties": { "address": "1215 CAROLINA ST.", "city": "SAN FRANCISCO", "country": "USA", "county": "SAN FRANCISCO", "countyfips": "06075", "districtid": "0634410", "end_grade": "05", "enrollment": 322.0, "fid": 14235, "ft_teacher": 17, "globalid": "dec88508-f735-4146-9c89-cff8f43dd10d", "latitude": 37.7532451, "level_": "ELEMENTARY", "level_clean": "Elementary", "longitude": -122.3991758, "naics_code": "611110", "naics_desc": "ELEMENTARY AND SECONDARY SCHOOLS", "name": "KING (THOMAS STARR) ELEMENTARY", "ncesid": "063441005671", "population": 339, "shelter_id": "NOT AVAILABLE", "source": "https://nces.ed.gov/ccd/schoolsearch/school_list.asp?schoolid=063441005671", "source_dat": "Wed, 31 Jan 2024 00:00:00 GMT", "st_grade": "KG", "state": "CA", "status": "1", "telephone": "(415) 695-5797", "type": "1", "val_date": "Tue, 23 Feb 2016 00:00:00 GMT", "val_method": "IMAGERY", "website": "NOT AVAILABLE", "zip": "94107", "zip4": "3322", "school_id": 134 }, "geometry": { "type": "Point", "coordinates": [ -122.399175823405855, 37.753245068904839 ] } },
{ "type": "Feature", "properties": { "address": "250 FOERSTER ST.", "city": "SAN FRANCISCO", "country": "USA", "county": "SAN FRANCISCO", "countyfips": "06075", "districtid": "0634410", "end_grade": "05", "enrollment": 327.0, "fid": 14236, "ft_teacher": 15, "globalid": "7c9b3d02-8f59-4783-8b3a-bd4f200e7ae6", "latitude": 37.730236, "level_": "ELEMENTARY", "level_clean": "Elementary", "longitude": -122.4485639, "naics_code": "611110", "naics_desc": "ELEMENTARY AND SECONDARY SCHOOLS", "name": "SUNNYSIDE ELEMENTARY", "ncesid": "063441005672", "population": 342, "shelter_id": "NOT AVAILABLE", "source": "https://nces.ed.gov/ccd/schoolsearch/school_list.asp?schoolid=063441005672", "source_dat": "Wed, 31 Jan 2024 00:00:00 GMT", "st_grade": "KG", "state": "CA", "status": "1", "telephone": "(415) 469-4746", "type": "1", "val_date": "Tue, 08 Jun 2010 00:00:00 GMT", "val_method": "IMAGERY", "website": "http://www.sunnysidesf.org/", "zip": "94112", "zip4": "1341", "school_id": 135 }, "geometry": { "type": "Point", "coordinates": [ -122.448563909296468, 37.730236016878713 ] } },
{ "type": "Feature", "properties": { "address": "235 12TH AVE.", "city": "SAN FRANCISCO", "country": "USA", "county": "SAN FRANCISCO", "countyfips": "06075", "districtid": "0634410", "end_grade": "05", "enrollment": 219.0, "fid": 14237, "ft_teacher": 9, "globalid": "3cad423a-7a93-4fc7-8ad6-6566050d7ec1", "latitude": 37.7837055, "level_": "ELEMENTARY", "level_clean": "Elementary", "longitude": -122.4714302, "naics_code": "611110", "naics_desc": "ELEMENTARY AND SECONDARY SCHOOLS", "name": "SUTRO ELEMENTARY", "ncesid": "063441005674", "population": 228, "shelter_id": "NOT AVAILABLE", "source": "https://nces.ed.gov/ccd/schoolsearch/school_list.asp?schoolid=063441005674", "source_dat": "Wed, 31 Jan 2024 00:00:00 GMT", "st_grade": "KG", "state": "CA", "status": "1", "telephone": "(415) 750-8525", "type": "1", "val_date": "Tue, 23 Feb 2016 00:00:00 GMT", "val_method": "IMAGERY/OTHER", "website": "NOT AVAILABLE", "zip": "94118", "zip4": "2103", "school_id": 136 }, "geometry": { "type": "Point", "coordinates": [ -122.471430167867737, 37.783705461837634 ] } },
{ "type": "Feature", "properties": { "address": "2650 42ND AVE.", "city": "SAN FRANCISCO", "country": "USA", "county": "SAN FRANCISCO", "countyfips": "06075", "districtid": "0634410", "end_grade": "05", "enrollment": 521.0, "fid": 14238, "ft_teacher": 20, "globalid": "61e3324a-3a91-4bac-93d2-60ee85935185", "latitude": 37.7374502, "level_": "ELEMENTARY", "level_clean": "Elementary", "longitude": -122.4996276, "naics_code": "611110", "naics_desc": "ELEMENTARY AND SECONDARY SCHOOLS", "name": "ULLOA ELEMENTARY", "ncesid": "063441005676", "population": 541, "shelter_id": "NOT AVAILABLE", "source": "https://nces.ed.gov/ccd/schoolsearch/school_list.asp?schoolid=063441005676", "source_dat": "Wed, 31 Jan 2024 00:00:00 GMT", "st_grade": "KG", "state": "CA", "status": "1", "telephone": "(415) 759-2841", "type": "1", "val_date": "Tue, 23 Feb 2016 00:00:00 GMT", "val_method": "IMAGERY", "website": "NOT AVAILABLE", "zip": "94116", "zip4": "2714", "school_id": 137 }, "geometry": { "type": "Point", "coordinates": [ -122.499627566159177, 37.737450149904554 ] } },
{ "type": "Feature", "properties": { "address": "55 SCHWERIN ST.", "city": "SAN FRANCISCO", "country": "USA", "county": "SAN FRANCISCO", "countyfips": "06075", "districtid": "0634410", "end_grade": "05", "enrollment": 254.0, "fid": 14239, "ft_teacher": 15, "globalid": "bd692cef-801e-4fef-9986-befdf8af57d8", "latitude": 37.7125871, "level_": "ELEMENTARY", "level_clean": "Elementary", "longitude": -122.4102145, "naics_code": "611110", "naics_desc": "ELEMENTARY AND SECONDARY SCHOOLS", "name": "VISITACION VALLEY ELEMENTARY", "ncesid": "063441005677", "population": 269, "shelter_id": "NOT AVAILABLE", "source": "https://nces.ed.gov/ccd/schoolsearch/school_list.asp?schoolid=063441005677", "source_dat": "Wed, 31 Jan 2024 00:00:00 GMT", "st_grade": "KG", "state": "CA", "status": "1", "telephone": "(415) 469-4796", "type": "1", "val_date": "Tue, 23 Feb 2016 00:00:00 GMT", "val_method": "IMAGERY/OTHER", "website": "NOT AVAILABLE", "zip": "94134", "zip4": "2742", "school_id": 138 }, "geometry": { "type": "Point", "coordinates": [ -122.410214489806876, 37.712587137386535 ] } },
{ "type": "Feature", "properties": { "address": "1971 VISITACION AVE.", "city": "SAN FRANCISCO", "country": "USA", "county": "SAN FRANCISCO", "countyfips": "06075", "districtid": "0634410", "end_grade": "08", "enrollment": 326.0, "fid": 14240, "ft_teacher": 23, "globalid": "60af7dbb-a3e8-4072-a296-64f95e5a3501", "latitude": 37.7157655, "level_": "MIDDLE", "level_clean": "Middle", "longitude": -122.4125833, "naics_code": "611110", "naics_desc": "ELEMENTARY AND SECONDARY SCHOOLS", "name": "VISITACION VALLEY MIDDLE", "ncesid": "063441005678", "population": 349, "shelter_id": "NOT AVAILABLE", "source": "https://nces.ed.gov/ccd/schoolsearch/school_list.asp?schoolid=063441005678", "source_dat": "Wed, 31 Jan 2024 00:00:00 GMT", "st_grade": "06", "state": "CA", "status": "1", "telephone": "(415) 469-4590", "type": "1", "val_date": "Tue, 23 Feb 2016 00:00:00 GMT", "val_method": "IMAGERY/OTHER", "website": "NOT AVAILABLE", "zip": "94134", "zip4": "2700", "school_id": 139 }, "geometry": { "type": "Point", "coordinates": [ -122.412583331055799, 37.71576554564345 ] } },
{ "type": "Feature", "properties": { "address": "5 LENOX WAY", "city": "SAN FRANCISCO", "country": "USA", "county": "SAN FRANCISCO", "countyfips": "06075", "districtid": "0634410", "end_grade": "05", "enrollment": 583.0, "fid": 14241, "ft_teacher": 22, "globalid": "98f55f90-f398-4a7a-81d4-446430638562", "latitude": 37.7432084, "level_": "ELEMENTARY", "level_clean": "Elementary", "longitude": -122.4645963, "naics_code": "611110", "naics_desc": "ELEMENTARY AND SECONDARY SCHOOLS", "name": "WEST PORTAL ELEMENTARY", "ncesid": "063441005679", "population": 605, "shelter_id": "NOT AVAILABLE", "source": "https://nces.ed.gov/ccd/schoolsearch/school_list.asp?schoolid=063441005679", "source_dat": "Wed, 31 Jan 2024 00:00:00 GMT", "st_grade": "KG", "state": "CA", "status": "1", "telephone": "(415) 759-2846", "type": "1", "val_date": "Tue, 23 Feb 2016 00:00:00 GMT", "val_method": "IMAGERY", "website": "NOT AVAILABLE", "zip": "94127", "zip4": "1111", "school_id": 140 }, "geometry": { "type": "Point", "coordinates": [ -122.464596318565341, 37.743208384859123 ] } },
{ "type": "Feature", "properties": { "address": "2725 CA ST.", "city": "SAN FRANCISCO", "country": "USA", "county": "SAN FRANCISCO", "countyfips": "06075", "districtid": "0634410", "end_grade": "05", "enrollment": 136.0, "fid": 14242, "ft_teacher": 8, "globalid": "dc93a2c8-a911-432f-8c5e-ff878cc33ece", "latitude": 37.7877144, "level_": "ELEMENTARY", "level_clean": "Elementary", "longitude": -122.439604, "naics_code": "611110", "naics_desc": "ELEMENTARY AND SECONDARY SCHOOLS", "name": "COBB (WILLIAM L.) ELEMENTARY", "ncesid": "063441005681", "population": 144, "shelter_id": "NOT AVAILABLE", "source": "https://nces.ed.gov/ccd/schoolsearch/school_list.asp?schoolid=063441005681", "source_dat": "Wed, 31 Jan 2024 00:00:00 GMT", "st_grade": "KG", "state": "CA", "status": "1", "telephone": "(415) 749-3505", "type": "1", "val_date": "Tue, 23 Feb 2016 00:00:00 GMT", "val_method": "IMAGERY/OTHER", "website": "NOT AVAILABLE", "zip": "94115", "zip4": "2513", "school_id": 141 }, "geometry": { "type": "Point", "coordinates": [ -122.439604012315343, 37.787714366125194 ] } },
{ "type": "Feature", "properties": { "address": "1920 41ST AVE.", "city": "SAN FRANCISCO", "country": "USA", "county": "SAN FRANCISCO", "countyfips": "06075", "districtid": "0634410", "end_grade": "05", "enrollment": 402.0, "fid": 14243, "ft_teacher": 16, "globalid": "21c0f66d-d877-4176-a402-c3b1778d51a3", "latitude": 37.7506521, "level_": "ELEMENTARY", "level_clean": "Elementary", "longitude": -122.4995911, "naics_code": "611110", "naics_desc": "ELEMENTARY AND SECONDARY SCHOOLS", "name": "SUNSET ELEMENTARY", "ncesid": "063441006556", "population": 418, "shelter_id": "NOT AVAILABLE", "source": "https://nces.ed.gov/ccd/schoolsearch/school_list.asp?schoolid=063441006556", "source_dat": "Wed, 31 Jan 2024 00:00:00 GMT", "st_grade": "KG", "state": "CA", "status": "1", "telephone": "(415) 759-2760", "type": "1", "val_date": "Tue, 08 Jun 2010 00:00:00 GMT", "val_method": "IMAGERY", "website": "NOT AVAILABLE", "zip": "94116", "zip4": "1101", "school_id": 142 }, "geometry": { "type": "Point", "coordinates": [ -122.499591123831152, 37.750652107608758 ] } },
{ "type": "Feature", "properties": { "address": "2355 FOLSOM ST.", "city": "SAN FRANCISCO", "country": "USA", "county": "SAN FRANCISCO", "countyfips": "06075", "districtid": "0634410", "end_grade": "12", "enrollment": 506.0, "fid": 14244, "ft_teacher": 31, "globalid": "b13939a6-90ce-46ef-80a1-10fc8cee3c68", "latitude": 37.7595257, "level_": "HIGH", "level_clean": "High", "longitude": -122.414529, "naics_code": "611110", "naics_desc": "ELEMENTARY AND SECONDARY SCHOOLS", "name": "O'CONNELL (JOHN) HIGH", "ncesid": "063441007350", "population": 537, "shelter_id": "10780983", "source": "https://nces.ed.gov/ccd/schoolsearch/school_list.asp?schoolid=063441007350", "source_dat": "Wed, 31 Jan 2024 00:00:00 GMT", "st_grade": "09", "state": "CA", "status": "1", "telephone": "(415) 695-5370", "type": "1", "val_date": "Tue, 08 Jun 2010 00:00:00 GMT", "val_method": "IMAGERY", "website": "NOT AVAILABLE", "zip": "94110", "zip4": "2010", "school_id": 143 }, "geometry": { "type": "Point", "coordinates": [ -122.414529008906612, 37.759525693056325 ] } },
{ "type": "Feature", "properties": { "address": "627 TURK ST.", "city": "SAN FRANCISCO", "country": "USA", "county": "SAN FRANCISCO", "countyfips": "06075", "districtid": "0634410", "end_grade": "05", "enrollment": 258.0, "fid": 14245, "ft_teacher": 13, "globalid": "1c14641e-46a2-4ae9-8dd5-688e45afb3b0", "latitude": 37.7818868, "level_": "ELEMENTARY", "level_clean": "Elementary", "longitude": -122.4200019, "naics_code": "611110", "naics_desc": "ELEMENTARY AND SECONDARY SCHOOLS", "name": "TENDERLOIN COMMUNITY", "ncesid": "063441007732", "population": 271, "shelter_id": "NOT AVAILABLE", "source": "https://nces.ed.gov/ccd/schoolsearch/school_list.asp?schoolid=063441007732", "source_dat": "Wed, 31 Jan 2024 00:00:00 GMT", "st_grade": "KG", "state": "CA", "status": "1", "telephone": "(415) 749-3567", "type": "1", "val_date": "Tue, 23 Feb 2016 00:00:00 GMT", "val_method": "IMAGERY/OTHER", "website": "NOT AVAILABLE", "zip": "94102", "zip4": "3212", "school_id": 144 }, "geometry": { "type": "Point", "coordinates": [ -122.420001901566792, 37.78188684380288 ] } },
{ "type": "Feature", "properties": { "address": "1350 7TH AVE.", "city": "SAN FRANCISCO", "country": "USA", "county": "SAN FRANCISCO", "countyfips": "06075", "districtid": "0634410", "end_grade": "12", "enrollment": 205.0, "fid": 14246, "ft_teacher": 16, "globalid": "91ffb7ac-3def-49a7-a8e7-e2e0d6a3cce9", "latitude": 37.7632389, "level_": "HIGH", "level_clean": "High", "longitude": -122.4638025, "naics_code": "611110", "naics_desc": "ELEMENTARY AND SECONDARY SCHOOLS", "name": "INDEPENDENCE HIGH", "ncesid": "063441007840", "population": 221, "shelter_id": "NOT AVAILABLE", "source": "https://nces.ed.gov/ccd/schoolsearch/school_list.asp?schoolid=063441007840", "source_dat": "Wed, 31 Jan 2024 00:00:00 GMT", "st_grade": "09", "state": "CA", "status": "1", "telephone": "(415) 242-2528", "type": "4", "val_date": "Tue, 24 Mar 2020 00:00:00 GMT", "val_method": "IMAGERY/OTHER", "website": "NOT AVAILABLE", "zip": "94122", "zip4": "2508", "school_id": 145 }, "geometry": { "type": "Point", "coordinates": [ -122.463802486994865, 37.763238855288947 ] } },
{ "type": "Feature", "properties": { "address": "3630 DIVISADERO ST.", "city": "SAN FRANCISCO", "country": "USA", "county": "SAN FRANCISCO", "countyfips": "06075", "districtid": "0634410", "end_grade": "08", "enrollment": 669.0, "fid": 14247, "ft_teacher": 29, "globalid": "29395233-a8dd-4685-a9bb-4afab21b2076", "latitude": 37.803251, "level_": "ELEMENTARY", "level_clean": "Elementary", "longitude": -122.4432221, "naics_code": "611110", "naics_desc": "ELEMENTARY AND SECONDARY SCHOOLS", "name": "LILIENTHAL (CLAIRE) ELEMENTARY", "ncesid": "063441007841", "population": 698, "shelter_id": "NOT AVAILABLE", "source": "https://nces.ed.gov/ccd/schoolsearch/school_list.asp?schoolid=063441007841", "source_dat": "Wed, 31 Jan 2024 00:00:00 GMT", "st_grade": "KG", "state": "CA", "status": "1", "telephone": "(415) 749-3516", "type": "1", "val_date": "Tue, 23 Feb 2016 00:00:00 GMT", "val_method": "IMAGERY", "website": "NOT AVAILABLE", "zip": "94123", "zip4": "1411", "school_id": 146 }, "geometry": { "type": "Point", "coordinates": [ -122.443222085630538, 37.803250960263618 ] } },
{ "type": "Feature", "properties": { "address": "450 CHURCH ST.", "city": "SAN FRANCISCO", "country": "USA", "county": "SAN FRANCISCO", "countyfips": "06075", "districtid": "0634410", "end_grade": "08", "enrollment": 504.0, "fid": 14248, "ft_teacher": 24, "globalid": "2d685171-b906-4d3f-8ed7-7ae2c3f1ed93", "latitude": 37.7636914, "level_": "MIDDLE", "level_clean": "Middle", "longitude": -122.4290458, "naics_code": "611110", "naics_desc": "ELEMENTARY AND SECONDARY SCHOOLS", "name": "EVERETT MIDDLE", "ncesid": "063441007842", "population": 528, "shelter_id": "NOT AVAILABLE", "source": "https://nces.ed.gov/ccd/schoolsearch/school_list.asp?schoolid=063441007842", "source_dat": "Wed, 31 Jan 2024 00:00:00 GMT", "st_grade": "06", "state": "CA", "status": "1", "telephone": "(415) 241-6344", "type": "1", "val_date": "Tue, 23 Feb 2016 00:00:00 GMT", "val_method": "IMAGERY/OTHER", "website": "NOT AVAILABLE", "zip": "94114", "zip4": "1721", "school_id": 147 }, "geometry": { "type": "Point", "coordinates": [ -122.429045755656716, 37.763691380652752 ] } },
{ "type": "Feature", "properties": { "address": "40 VEGA ST.", "city": "SAN FRANCISCO", "country": "USA", "county": "SAN FRANCISCO", "countyfips": "06075", "districtid": "0634410", "end_grade": "12", "enrollment": 549.0, "fid": 14249, "ft_teacher": 29, "globalid": "02ac6297-dbbf-4fdf-8e01-13c20ee25628", "latitude": 37.7804433, "level_": "HIGH", "level_clean": "High", "longitude": -122.4462897, "naics_code": "611110", "naics_desc": "ELEMENTARY AND SECONDARY SCHOOLS", "name": "WALLENBERG (RAOUL) TRADITIONAL HIGH", "ncesid": "063441007845", "population": 578, "shelter_id": "NOT AVAILABLE", "source": "https://nces.ed.gov/ccd/schoolsearch/school_list.asp?schoolid=063441007845", "source_dat": "Wed, 31 Jan 2024 00:00:00 GMT", "st_grade": "09", "state": "CA", "status": "1", "telephone": "(415) 749-3469", "type": "1", "val_date": "Tue, 23 Feb 2016 00:00:00 GMT", "val_method": "IMAGERY/OTHER", "website": "NOT AVAILABLE", "zip": "94115", "zip4": "3826", "school_id": 148 }, "geometry": { "type": "Point", "coordinates": [ -122.446289730686814, 37.780443303315877 ] } },
{ "type": "Feature", "properties": { "address": "400 MANSELL ST.", "city": "SAN FRANCISCO", "country": "USA", "county": "SAN FRANCISCO", "countyfips": "06075", "districtid": "0634410", "end_grade": "12", "enrollment": 1060.0, "fid": 14250, "ft_teacher": 52, "globalid": "818e3520-352b-4efb-a27b-c7543f681b9c", "latitude": 37.7213071, "level_": "HIGH", "level_clean": "High", "longitude": -122.4065365, "naics_code": "611110", "naics_desc": "ELEMENTARY AND SECONDARY SCHOOLS", "name": "BURTON (PHILLIP AND SALA) ACADEMIC HIGH", "ncesid": "063441008189", "population": 1112, "shelter_id": "NOT AVAILABLE", "source": "https://nces.ed.gov/ccd/schoolsearch/school_list.asp?schoolid=063441008189", "source_dat": "Wed, 31 Jan 2024 00:00:00 GMT", "st_grade": "09", "state": "CA", "status": "1", "telephone": "(415) 469-4550", "type": "1", "val_date": "Mon, 07 Jun 2010 00:00:00 GMT", "val_method": "IMAGERY", "website": "NOT AVAILABLE", "zip": "94134", "zip4": "1829", "school_id": 149 }, "geometry": { "type": "Point", "coordinates": [ -122.406536449697441, 37.721307143809696 ] } },
{ "type": "Feature", "properties": { "address": "50 POMONA AVE.", "city": "SAN FRANCISCO", "country": "USA", "county": "SAN FRANCISCO", "countyfips": "06075", "districtid": "0634410", "end_grade": "05", "enrollment": 174.0, "fid": 14251, "ft_teacher": 6, "globalid": "eca8f806-be15-4a55-88ef-bd1dc00f0708", "latitude": 37.7316708, "level_": "ELEMENTARY", "level_clean": "Elementary", "longitude": -122.3939737, "naics_code": "611110", "naics_desc": "ELEMENTARY AND SECONDARY SCHOOLS", "name": "DREW (CHARLES) COLLEGE PREPARATORY ACADEMY", "ncesid": "063441008191", "population": 180, "shelter_id": "NOT AVAILABLE", "source": "https://nces.ed.gov/ccd/schoolsearch/school_list.asp?schoolid=063441008191", "source_dat": "Wed, 31 Jan 2024 00:00:00 GMT", "st_grade": "KG", "state": "CA", "status": "1", "telephone": "(415) 330-1526", "type": "1", "val_date": "Tue, 08 Jun 2010 00:00:00 GMT", "val_method": "IMAGERY", "website": "NOT AVAILABLE", "zip": "94124", "zip4": "2344", "school_id": 150 }, "geometry": { "type": "Point", "coordinates": [ -122.393973650064282, 37.73167076019746 ] } },
{ "type": "Feature", "properties": { "address": "2245 JONES ST.", "city": "SAN FRANCISCO", "country": "USA", "county": "SAN FRANCISCO", "countyfips": "06075", "districtid": "0634410", "end_grade": "05", "enrollment": 209.0, "fid": 14252, "ft_teacher": 12, "globalid": "16fe0986-ff1d-41be-a667-71525b26eb41", "latitude": 37.8019867, "level_": "ELEMENTARY", "level_clean": "Elementary", "longitude": -122.4166393, "naics_code": "611110", "naics_desc": "ELEMENTARY AND SECONDARY SCHOOLS", "name": "YICK WO ELEMENTARY", "ncesid": "063441008967", "population": 221, "shelter_id": "NOT AVAILABLE", "source": "https://nces.ed.gov/ccd/schoolsearch/school_list.asp?schoolid=063441008967", "source_dat": "Wed, 31 Jan 2024 00:00:00 GMT", "st_grade": "KG", "state": "CA", "status": "1", "telephone": "(415) 749-3540", "type": "1", "val_date": "Tue, 23 Feb 2016 00:00:00 GMT", "val_method": "IMAGERY/OTHER", "website": "NOT AVAILABLE", "zip": "94133", "zip4": "2207", "school_id": 151 }, "geometry": { "type": "Point", "coordinates": [ -122.416639313953155, 37.801986687036027 ] } },
{ "type": "Feature", "properties": { "address": "325 LA GRANDE AVE.", "city": "SAN FRANCISCO", "country": "USA", "county": "SAN FRANCISCO", "countyfips": "06075", "districtid": "0634410", "end_grade": "12", "enrollment": 201.0, "fid": 14253, "ft_teacher": 15, "globalid": "80530d5f-dacd-4a70-85e1-4cecc2b623ed", "latitude": 37.7195505, "level_": "HIGH", "level_clean": "High", "longitude": -122.4252771, "naics_code": "611110", "naics_desc": "ELEMENTARY AND SECONDARY SCHOOLS", "name": "JORDAN (JUNE) SCHOOL FOR EQUITY", "ncesid": "063441011252", "population": 216, "shelter_id": "NOT AVAILABLE", "source": "https://nces.ed.gov/ccd/schoolsearch/school_list.asp?schoolid=063441011252", "source_dat": "Wed, 31 Jan 2024 00:00:00 GMT", "st_grade": "09", "state": "CA", "status": "1", "telephone": "(415) 452-4922", "type": "4", "val_date": "Tue, 08 Jun 2010 00:00:00 GMT", "val_method": "IMAGERY", "website": "http://www.sfusd.edu", "zip": "94112", "zip4": "2866", "school_id": 152 }, "geometry": { "type": "Point", "coordinates": [ -122.425277134032541, 37.719550468379481 ] } },
{ "type": "Feature", "properties": { "address": "2550 25TH AVE.", "city": "SAN FRANCISCO", "country": "USA", "county": "SAN FRANCISCO", "countyfips": "06075", "districtid": "0634410", "end_grade": "05", "enrollment": 394.0, "fid": 14254, "ft_teacher": 20, "globalid": "087ab6c2-a00f-498c-87f4-eb51874c9c81", "latitude": 37.7396549, "level_": "ELEMENTARY", "level_clean": "Elementary", "longitude": -122.4817341, "naics_code": "611110", "naics_desc": "ELEMENTARY AND SECONDARY SCHOOLS", "name": "FEINSTEIN (DIANNE) ELEMENTARY", "ncesid": "063441011772", "population": 414, "shelter_id": "NOT AVAILABLE", "source": "https://nces.ed.gov/ccd/schoolsearch/school_list.asp?schoolid=063441011772", "source_dat": "Wed, 31 Jan 2024 00:00:00 GMT", "st_grade": "KG", "state": "CA", "status": "1", "telephone": "(415) 615-8460", "type": "1", "val_date": "Tue, 08 Jun 2010 00:00:00 GMT", "val_method": "IMAGERY", "website": "NOT AVAILABLE", "zip": "94116", "zip4": "2901", "school_id": 153 }, "geometry": { "type": "Point", "coordinates": [ -122.48173406027891, 37.739654885564569 ] } },
{ "type": "Feature", "properties": { "address": "1250 WALLER ST.", "city": "SAN FRANCISCO", "country": "USA", "county": "SAN FRANCISCO", "countyfips": "06075", "districtid": "0634410", "end_grade": "05", "enrollment": 376.0, "fid": 14255, "ft_teacher": 16, "globalid": "dd736123-83cf-4b53-b039-e7fe8d8f435d", "latitude": 37.7697539, "level_": "ELEMENTARY", "level_clean": "Elementary", "longitude": -122.444258, "naics_code": "611110", "naics_desc": "ELEMENTARY AND SECONDARY SCHOOLS", "name": "CHINESE IMMERSION SCHOOL AT DEAVILA", "ncesid": "063441012487", "population": 392, "shelter_id": "NOT AVAILABLE", "source": "https://nces.ed.gov/ccd/schoolsearch/school_list.asp?schoolid=063441012487", "source_dat": "Wed, 31 Jan 2024 00:00:00 GMT", "st_grade": "KG", "state": "CA", "status": "1", "telephone": "(415) 241-6325", "type": "1", "val_date": "Tue, 19 Feb 2019 00:00:00 GMT", "val_method": "IMAGERY", "website": "http://www.sfusd.edu", "zip": "94117", "zip4": "2919", "school_id": 154 }, "geometry": { "type": "Point", "coordinates": [ -122.444257958038648, 37.769753930899221 ] } },
{ "type": "Feature", "properties": { "address": "655 DEHARO ST.", "city": "SAN FRANCISCO", "country": "USA", "county": "SAN FRANCISCO", "countyfips": "06075", "districtid": "0634410", "end_grade": "12", "enrollment": 401.0, "fid": 14256, "ft_teacher": 23, "globalid": "b2f12cf6-c7e7-400f-a6fe-0cd4b63558ae", "latitude": 37.7618256, "level_": "HIGH", "level_clean": "High", "longitude": -122.4272245, "naics_code": "611110", "naics_desc": "ELEMENTARY AND SECONDARY SCHOOLS", "name": "S.F. INTERNATIONAL HIGH", "ncesid": "063441012494", "population": 424, "shelter_id": "NOT AVAILABLE", "source": "https://nces.ed.gov/ccd/schoolsearch/school_list.asp?schoolid=063441012494", "source_dat": "Wed, 31 Jan 2024 00:00:00 GMT", "st_grade": "08", "state": "CA", "status": "1", "telephone": "(415) 695-5781", "type": "4", "val_date": "Mon, 30 Oct 2017 00:00:00 GMT", "val_method": "IMAGERY", "website": "http://www.sfusd.edu", "zip": "94107", "zip4": "2727", "school_id": 155 }, "geometry": { "type": "Point", "coordinates": [ -122.427224472931186, 37.761825550908462 ] } },
{ "type": "Feature", "properties": { "address": "555 PORTOLA DR.", "city": "SAN FRANCISCO", "country": "USA", "county": "SAN FRANCISCO", "countyfips": "06075", "districtid": "0634410", "end_grade": "12", "enrollment": 320.0, "fid": 14257, "ft_teacher": 18, "globalid": "c44ff65b-4be5-432e-ae14-ba72456a7c28", "latitude": 37.7450864, "level_": "HIGH", "level_clean": "High", "longitude": -122.4494209, "naics_code": "611110", "naics_desc": "ELEMENTARY AND SECONDARY SCHOOLS", "name": "ACADEMY (THE)- SF @MCATEER", "ncesid": "063441012526", "population": 338, "shelter_id": "NOT AVAILABLE", "source": "https://nces.ed.gov/ccd/schoolsearch/school_list.asp?schoolid=063441012526", "source_dat": "Wed, 31 Jan 2024 00:00:00 GMT", "st_grade": "09", "state": "CA", "status": "1", "telephone": "(415) 695-5700", "type": "4", "val_date": "Thu, 29 Sep 2011 00:00:00 GMT", "val_method": "IMAGERY", "website": "http://www.sotacad.org/", "zip": "94131", "zip4": "1616", "school_id": 156 }, "geometry": { "type": "Point", "coordinates": [ -122.449420857986425, 37.745086405813034 ] } },
{ "type": "Feature", "properties": { "address": "1950 CHESTNUT ST.", "city": "SAN FRANCISCO", "country": "USA", "county": "SAN FRANCISCO", "countyfips": "06075", "districtid": "0634410", "end_grade": "KG", "enrollment": 71.0, "fid": 14258, "ft_teacher": -999, "globalid": "55281c57-ed25-433f-9908-d5e75998adaa", "latitude": 37.7992666, "level_": "ELEMENTARY", "level_clean": "Elementary", "longitude": -122.4350399, "naics_code": "611110", "naics_desc": "ELEMENTARY AND SECONDARY SCHOOLS", "name": "TULE ELK PARK CHILDREN CENTER", "ncesid": "063441012583", "population": 71, "shelter_id": "NOT AVAILABLE", "source": "https://nces.ed.gov/ccd/schoolsearch/school_list.asp?schoolid=063441012583", "source_dat": "Wed, 31 Jan 2024 00:00:00 GMT", "st_grade": "KG", "state": "CA", "status": "1", "telephone": "(415) 749-3551", "type": "1", "val_date": "Thu, 29 Sep 2011 00:00:00 GMT", "val_method": "IMAGERY", "website": "NOT AVAILABLE", "zip": "94123", "zip4": "2805", "school_id": 157 }, "geometry": { "type": "Point", "coordinates": [ -122.435039935844287, 37.799266646138868 ] } },
{ "type": "Feature", "properties": { "address": "2340 JACKSON ST.", "city": "SAN FRANCISCO", "country": "USA", "county": "SAN FRANCISCO", "countyfips": "06075", "districtid": "0634410", "end_grade": "05", "enrollment": 118.0, "fid": 14259, "ft_teacher": 7, "globalid": "12928789-6a0d-4642-b6d9-f6fcbacce3a4", "latitude": 37.7927856, "level_": "ELEMENTARY", "level_clean": "Elementary", "longitude": -122.4334298, "naics_code": "611110", "naics_desc": "ELEMENTARY AND SECONDARY SCHOOLS", "name": "SAN FRANCISCO PUBLIC MONTESSORI", "ncesid": "063441012788", "population": 125, "shelter_id": "NOT AVAILABLE", "source": "https://nces.ed.gov/ccd/schoolsearch/school_list.asp?schoolid=063441012788", "source_dat": "Wed, 31 Jan 2024 00:00:00 GMT", "st_grade": "KG", "state": "CA", "status": "1", "telephone": "(415) 749-3544", "type": "1", "val_date": "Thu, 15 May 2014 00:00:00 GMT", "val_method": "IMAGERY/OTHER", "website": "http://www.sfpublicmontessori.com", "zip": "94115", "zip4": "1323", "school_id": 158 }, "geometry": { "type": "Point", "coordinates": [ -122.433429784256958, 37.792785585586337 ] } },
{ "type": "Feature", "properties": { "address": "1775 44TH AVE.", "city": "SAN FRANCISCO", "country": "USA", "county": "SAN FRANCISCO", "countyfips": "06075", "districtid": "0634410", "end_grade": "KG", "enrollment": 44.0, "fid": 14260, "ft_teacher": -999, "globalid": "29eb83f6-4ae9-4f86-8688-0243f149ee6e", "latitude": 37.7538828, "level_": "ELEMENTARY", "level_clean": "Elementary", "longitude": -122.5037794, "naics_code": "611110", "naics_desc": "ELEMENTARY AND SECONDARY SCHOOLS", "name": "NORIEGA CHILDREN CENTER", "ncesid": "063441013231", "population": 44, "shelter_id": "NOT AVAILABLE", "source": "https://nces.ed.gov/ccd/schoolsearch/school_list.asp?schoolid=063441013231", "source_dat": "Wed, 31 Jan 2024 00:00:00 GMT", "st_grade": "KG", "state": "CA", "status": "1", "telephone": "(415) 759-2853", "type": "1", "val_date": "Tue, 26 May 2015 00:00:00 GMT", "val_method": "IMAGERY", "website": "NOT AVAILABLE", "zip": "94122", "zip4": "4013", "school_id": 159 }, "geometry": { "type": "Point", "coordinates": [ -122.503779432974298, 37.75388284561685 ] } },
{ "type": "Feature", "properties": { "address": "1501 O'FARRELL ST.", "city": "SAN FRANCISCO", "country": "USA", "county": "SAN FRANCISCO", "countyfips": "06075", "districtid": "0634410", "end_grade": "M", "enrollment": null, "fid": 14261, "ft_teacher": -999, "globalid": "52fb47fa-2250-4d76-9110-8d54564db87c", "latitude": 37.783112, "level_": "NOT REPORTED", "level_clean": null, "longitude": -122.4299119, "naics_code": "611110", "naics_desc": "ELEMENTARY AND SECONDARY SCHOOLS", "name": "WEILL (RAPHAEL) CHILDREN CENTER", "ncesid": "063441013244", "population": -999, "shelter_id": "NOT AVAILABLE", "source": "https://nces.ed.gov/ccd/schoolsearch/school_list.asp?schoolid=063441013244", "source_dat": "Wed, 31 Jan 2024 00:00:00 GMT", "st_grade": "M", "state": "CA", "status": "1", "telephone": "(415) 749-3548", "type": "1", "val_date": "Tue, 26 May 2015 00:00:00 GMT", "val_method": "IMAGERY/OTHER", "website": "NOT AVAILABLE", "zip": "94115", "zip4": "3762", "school_id": 160 }, "geometry": { "type": "Point", "coordinates": [ -122.429911852250541, 37.783112017205916 ] } },
{ "type": "Feature", "properties": { "address": "990 CHURCH ST.", "city": "SAN FRANCISCO", "country": "USA", "county": "SAN FRANCISCO", "countyfips": "06075", "districtid": "0634410", "end_grade": "M", "enrollment": null, "fid": 14262, "ft_teacher": -999, "globalid": "8eb89142-a78d-45e4-80b8-3912e196f6d5", "latitude": 37.7552214, "level_": "NOT REPORTED", "level_clean": null, "longitude": -122.4281184, "naics_code": "611110", "naics_desc": "ELEMENTARY AND SECONDARY SCHOOLS", "name": "MAHLER (THERESA S.) CHILDREN CENTER", "ncesid": "063441013281", "population": -999, "shelter_id": "NOT AVAILABLE", "source": "https://nces.ed.gov/ccd/schoolsearch/school_list.asp?schoolid=063441013281", "source_dat": "Wed, 31 Jan 2024 00:00:00 GMT", "st_grade": "M", "state": "CA", "status": "1", "telephone": "(415) 695-5871", "type": "1", "val_date": "Tue, 26 May 2015 00:00:00 GMT", "val_method": "IMAGERY", "website": "NOT AVAILABLE", "zip": "94114", "zip4": "3044", "school_id": 161 }, "geometry": { "type": "Point", "coordinates": [ -122.428118431420316, 37.755221364174652 ] } },
{ "type": "Feature", "properties": { "address": "801 TREAT AVE.", "city": "SAN FRANCICO", "country": "USA", "county": "SAN FRANCISCO", "countyfips": "06075", "districtid": "0634410", "end_grade": "M", "enrollment": null, "fid": 14263, "ft_teacher": -999, "globalid": "03cb7c07-3980-4d87-a658-c1edfdcfd575", "latitude": 37.7571306, "level_": "NOT REPORTED", "level_clean": null, "longitude": -122.4128545, "naics_code": "611110", "naics_desc": "ELEMENTARY AND SECONDARY SCHOOLS", "name": "LAS AMERICAS CHILDREN CENTER", "ncesid": "063441013328", "population": -999, "shelter_id": "NOT AVAILABLE", "source": "https://nces.ed.gov/ccd/schoolsearch/school_list.asp?schoolid=063441013328", "source_dat": "Wed, 31 Jan 2024 00:00:00 GMT", "st_grade": "M", "state": "CA", "status": "1", "telephone": "(415) 695-5746", "type": "1", "val_date": "Tue, 26 May 2015 00:00:00 GMT", "val_method": "IMAGERY", "website": "NOT AVAILABLE", "zip": "94110", "zip4": "2723", "school_id": 162 }, "geometry": { "type": "Point", "coordinates": [ -122.412854545900444, 37.757130570019882 ] } },
{ "type": "Feature", "properties": { "address": "940 FILBERT ST.", "city": "SAN FRANCISCO", "country": "USA", "county": "SAN FRANCISCO", "countyfips": "06075", "districtid": "0634410", "end_grade": "M", "enrollment": null, "fid": 14264, "ft_teacher": -999, "globalid": "30d88ad3-1b2b-483d-8f1a-56ea39907cba", "latitude": 37.8009954, "level_": "NOT REPORTED", "level_clean": null, "longitude": -122.4151018, "naics_code": "611110", "naics_desc": "ELEMENTARY AND SECONDARY SCHOOLS", "name": "COOPER (SARAH B.) CHILDREN CENTER", "ncesid": "063441013393", "population": -999, "shelter_id": "NOT AVAILABLE", "source": "https://nces.ed.gov/ccd/schoolsearch/school_list.asp?schoolid=063441013393", "source_dat": "Wed, 31 Jan 2024 00:00:00 GMT", "st_grade": "M", "state": "CA", "status": "1", "telephone": "(415) 749-3550", "type": "1", "val_date": "Wed, 20 Feb 2019 00:00:00 GMT", "val_method": "IMAGERY", "website": "NOT AVAILABLE", "zip": "94133", "zip4": "2606", "school_id": 163 }, "geometry": { "type": "Point", "coordinates": [ -122.415101761037846, 37.800995442585624 ] } },
{ "type": "Feature", "properties": { "address": "2055 SUNNYDALE AVE.", "city": "SAN FRANCISCO", "country": "USA", "county": "SAN FRANCISCO", "countyfips": "06075", "districtid": "0634410", "end_grade": "KG", "enrollment": 26.0, "fid": 14265, "ft_teacher": -999, "globalid": "50a264f3-9aaa-4bb4-91d1-d396d4bd990e", "latitude": 37.7134569, "level_": "ELEMENTARY", "level_clean": "Elementary", "longitude": -122.423419, "naics_code": "611110", "naics_desc": "ELEMENTARY AND SECONDARY SCHOOLS", "name": "MCLAREN (JOHN) CHILDREN CENTERS", "ncesid": "063441013456", "population": 26, "shelter_id": "NOT AVAILABLE", "source": "https://nces.ed.gov/ccd/schoolsearch/school_list.asp?schoolid=063441013456", "source_dat": "Wed, 31 Jan 2024 00:00:00 GMT", "st_grade": "KG", "state": "CA", "status": "1", "telephone": "(415) 469-4519", "type": "1", "val_date": "Tue, 26 May 2015 00:00:00 GMT", "val_method": "IMAGERY", "website": "NOT AVAILABLE", "zip": "94134", "zip4": "2611", "school_id": 164 }, "geometry": { "type": "Point", "coordinates": [ -122.423418995290362, 37.713456863643408 ] } },
{ "type": "Feature", "properties": { "address": "387 MORAGA AVE.", "city": "SAN FRANCISCO", "country": "USA", "county": "SAN FRANCISCO", "countyfips": "06075", "districtid": "0634410", "end_grade": "M", "enrollment": null, "fid": 14266, "ft_teacher": -999, "globalid": "0a2ca4d4-c573-4383-b028-296cf79eddb9", "latitude": 37.797674, "level_": "NOT REPORTED", "level_clean": null, "longitude": -122.461031, "naics_code": "611110", "naics_desc": "ELEMENTARY AND SECONDARY SCHOOLS", "name": "PRESIDIO EARLY ED.", "ncesid": "063441013488", "population": -999, "shelter_id": "NOT AVAILABLE", "source": "https://nces.ed.gov/ccd/schoolsearch/school_list.asp?schoolid=063441013488", "source_dat": "Wed, 31 Jan 2024 00:00:00 GMT", "st_grade": "M", "state": "CA", "status": "1", "telephone": "(415) 561-5822", "type": "1", "val_date": "Sun, 05 Jun 2022 00:00:00 GMT", "val_method": "IMAGERY/OTHER", "website": "NOT AVAILABLE", "zip": "94129", "zip4": "2235", "school_id": 165 }, "geometry": { "type": "Point", "coordinates": [ -122.461031000380089, 37.797673999855284 ] } },
{ "type": "Feature", "properties": { "address": "300 SENECA AVE.", "city": "SAN FRANCISCO", "country": "USA", "county": "SAN FRANCISCO", "countyfips": "06075", "districtid": "0634410", "end_grade": "M", "enrollment": null, "fid": 14267, "ft_teacher": -999, "globalid": "f36e185c-9813-4d3e-8660-cda995856a5d", "latitude": 37.7216629, "level_": "NOT REPORTED", "level_clean": null, "longitude": -122.445098, "naics_code": "611110", "naics_desc": "ELEMENTARY AND SECONDARY SCHOOLS", "name": "SAN MIGUEL CHILDREN CENTER", "ncesid": "063441013548", "population": -999, "shelter_id": "NOT AVAILABLE", "source": "https://nces.ed.gov/ccd/schoolsearch/school_list.asp?schoolid=063441013548", "source_dat": "Wed, 31 Jan 2024 00:00:00 GMT", "st_grade": "M", "state": "CA", "status": "1", "telephone": "(415) 469-4756", "type": "1", "val_date": "Tue, 26 May 2015 00:00:00 GMT", "val_method": "IMAGERY/OTHER", "website": "NOT AVAILABLE", "zip": "94112", "zip4": "3248", "school_id": 166 }, "geometry": { "type": "Point", "coordinates": [ -122.445098033647469, 37.721662906617873 ] } },
{ "type": "Feature", "properties": { "address": "1520 OAKDALE AVE.", "city": "SAN FRANCISCO", "country": "USA", "county": "SAN FRANCISCO", "countyfips": "06075", "districtid": "0634410", "end_grade": "M", "enrollment": null, "fid": 14268, "ft_teacher": -999, "globalid": "74991c90-4e62-49bc-a44e-7b052680e14b", "latitude": 37.7346312, "level_": "NOT REPORTED", "level_clean": null, "longitude": -122.3891981, "naics_code": "611110", "naics_desc": "ELEMENTARY AND SECONDARY SCHOOLS", "name": "HAVARD (LEOLA M.) EARLY EDUCATION", "ncesid": "063441013585", "population": -999, "shelter_id": "NOT AVAILABLE", "source": "https://nces.ed.gov/ccd/schoolsearch/school_list.asp?schoolid=063441013585", "source_dat": "Wed, 31 Jan 2024 00:00:00 GMT", "st_grade": "M", "state": "CA", "status": "1", "telephone": "(415) 695-5660", "type": "1", "val_date": "Tue, 26 May 2015 00:00:00 GMT", "val_method": "IMAGERY", "website": "NOT AVAILABLE", "zip": "94124", "zip4": "2323", "school_id": 167 }, "geometry": { "type": "Point", "coordinates": [ -122.389198143879241, 37.734631173689742 ] } },
{ "type": "Feature", "properties": { "address": "1 TRENTON ST.", "city": "SAN FRANCISCO", "country": "USA", "county": "SAN FRANCISCO", "countyfips": "06075", "districtid": "0634410", "end_grade": "KG", "enrollment": 22.0, "fid": 14269, "ft_teacher": -999, "globalid": "d8b53813-f141-42be-b8cb-05daf5ed7d37", "latitude": 37.7945321, "level_": "ELEMENTARY", "level_clean": "Elementary", "longitude": -122.4088682, "naics_code": "611110", "naics_desc": "ELEMENTARY AND SECONDARY SCHOOLS", "name": "STOCKTON (COMMODORE) CHILDREN CENTER", "ncesid": "063441013621", "population": 22, "shelter_id": "NOT AVAILABLE", "source": "https://nces.ed.gov/ccd/schoolsearch/school_list.asp?schoolid=063441013621", "source_dat": "Wed, 31 Jan 2024 00:00:00 GMT", "st_grade": "KG", "state": "CA", "status": "1", "telephone": "(415) 291-7932", "type": "1", "val_date": "Tue, 26 May 2015 00:00:00 GMT", "val_method": "IMAGERY", "website": "NOT AVAILABLE", "zip": "94108", "zip4": "1112", "school_id": 168 }, "geometry": { "type": "Point", "coordinates": [ -122.408868218193248, 37.794532125657085 ] } },
{ "type": "Feature", "properties": { "address": "116 ROMNEY AVE.", "city": "SOUTH SAN FRANCISCO", "country": "USA", "county": "SAN MATEO", "countyfips": "06081", "districtid": "0637530", "end_grade": "08", "enrollment": 628.0, "fid": 14979, "ft_teacher": 34, "globalid": "87b0e725-b422-4495-a638-f51cc84356f0", "latitude": 37.6616824, "level_": "MIDDLE", "level_clean": "Middle", "longitude": -122.450159, "naics_code": "611110", "naics_desc": "ELEMENTARY AND SECONDARY SCHOOLS", "name": "ALTA LOMA MIDDLE", "ncesid": "063753006339", "population": 662, "shelter_id": "10814157", "source": "https://nces.ed.gov/ccd/schoolsearch/school_list.asp?schoolid=063753006339", "source_dat": "Wed, 31 Jan 2024 00:00:00 GMT", "st_grade": "06", "state": "CA", "status": "1", "telephone": "(650) 877-8797", "type": "1", "val_date": "Wed, 24 Feb 2016 00:00:00 GMT", "val_method": "IMAGERY", "website": "NOT AVAILABLE", "zip": "94080", "zip4": "2141", "school_id": 169 }, "geometry": { "type": "Point", "coordinates": [ -122.450159017924221, 37.661682387132444 ] } },
{ "type": "Feature", "properties": { "address": "825 S.WOOD DR.", "city": "SOUTH SAN FRANCISCO", "country": "USA", "county": "SAN MATEO", "countyfips": "06081", "districtid": "0637530", "end_grade": "12", "enrollment": 122.0, "fid": 14980, "ft_teacher": 8, "globalid": "6c07de53-6360-42a3-91eb-16fbb36d9472", "latitude": 37.6499578, "level_": "HIGH", "level_clean": "High", "longitude": -122.4359041, "naics_code": "611110", "naics_desc": "ELEMENTARY AND SECONDARY SCHOOLS", "name": "BADEN HIGH (CONTINUATION)", "ncesid": "063753006340", "population": 130, "shelter_id": "NOT AVAILABLE", "source": "https://nces.ed.gov/ccd/schoolsearch/school_list.asp?schoolid=063753006340", "source_dat": "Wed, 31 Jan 2024 00:00:00 GMT", "st_grade": "09", "state": "CA", "status": "1", "telephone": "(650) 877-8769", "type": "4", "val_date": "Wed, 09 Jun 2010 00:00:00 GMT", "val_method": "IMAGERY", "website": "NOT AVAILABLE", "zip": "94080", "zip4": "3106", "school_id": 170 }, "geometry": { "type": "Point", "coordinates": [ -122.435904085405284, 37.649957796115466 ] } },
{ "type": "Feature", "properties": { "address": "325 DEL MONTE AVE.", "city": "SOUTH SAN FRANCISCO", "country": "USA", "county": "SAN MATEO", "countyfips": "06081", "districtid": "0637530", "end_grade": "05", "enrollment": 574.0, "fid": 14981, "ft_teacher": 25, "globalid": "ed76a34e-45c9-44b4-bcbe-adec3bc9ad46", "latitude": 37.6564651, "level_": "ELEMENTARY", "level_clean": "Elementary", "longitude": -122.4451588, "naics_code": "611110", "naics_desc": "ELEMENTARY AND SECONDARY SCHOOLS", "name": "BURI BURI ELEMENTARY", "ncesid": "063753006341", "population": 599, "shelter_id": "10814158", "source": "https://nces.ed.gov/ccd/schoolsearch/school_list.asp?schoolid=063753006341", "source_dat": "Wed, 31 Jan 2024 00:00:00 GMT", "st_grade": "KG", "state": "CA", "status": "1", "telephone": "(650) 877-8776", "type": "1", "val_date": "Wed, 24 Feb 2016 00:00:00 GMT", "val_method": "IMAGERY", "website": "NOT AVAILABLE", "zip": "94080", "zip4": "4159", "school_id": 171 }, "geometry": { "type": "Point", "coordinates": [ -122.445158764864885, 37.656465114173699 ] } },
{ "type": "Feature", "properties": { "address": "1320 MISSION RD.", "city": "SOUTH SAN FRANCISCO", "country": "USA", "county": "SAN MATEO", "countyfips": "06081", "districtid": "0637530", "end_grade": "12", "enrollment": 1173.0, "fid": 14982, "ft_teacher": 62, "globalid": "9da8411f-2b9a-4293-a90e-be4e64bf0f85", "latitude": 37.6667039, "level_": "HIGH", "level_clean": "High", "longitude": -122.4417522, "naics_code": "611110", "naics_desc": "ELEMENTARY AND SECONDARY SCHOOLS", "name": "EL CAMINO HIGH", "ncesid": "063753006342", "population": 1235, "shelter_id": "10813903", "source": "https://nces.ed.gov/ccd/schoolsearch/school_list.asp?schoolid=063753006342", "source_dat": "Wed, 31 Jan 2024 00:00:00 GMT", "st_grade": "09", "state": "CA", "status": "1", "telephone": "(650) 877-8806", "type": "1", "val_date": "Wed, 24 Feb 2016 00:00:00 GMT", "val_method": "IMAGERY", "website": "NOT AVAILABLE", "zip": "94080", "zip4": "1214", "school_id": 172 }, "geometry": { "type": "Point", "coordinates": [ -122.4417522147927, 37.666703860594708 ] } },
{ "type": "Feature", "properties": { "address": "210 W. ORANGE AVE.", "city": "SOUTH SAN FRANCISCO", "country": "USA", "county": "SAN MATEO", "countyfips": "06081", "districtid": "0637530", "end_grade": "05", "enrollment": 306.0, "fid": 14984, "ft_teacher": 15, "globalid": "e762ac8f-424d-4546-93c6-105c47ef89ec", "latitude": 37.6509519, "level_": "ELEMENTARY", "level_clean": "Elementary", "longitude": -122.4268918, "naics_code": "611110", "naics_desc": "ELEMENTARY AND SECONDARY SCHOOLS", "name": "LOS CERRITOS ELEMENTARY", "ncesid": "063753006346", "population": 321, "shelter_id": "10814160", "source": "https://nces.ed.gov/ccd/schoolsearch/school_list.asp?schoolid=063753006346", "source_dat": "Wed, 31 Jan 2024 00:00:00 GMT", "st_grade": "KG", "state": "CA", "status": "1", "telephone": "(650) 877-8841", "type": "1", "val_date": "Wed, 24 Feb 2016 00:00:00 GMT", "val_method": "IMAGERY", "website": "NOT AVAILABLE", "zip": "94080", "zip4": "4444", "school_id": 173 }, "geometry": { "type": "Point", "coordinates": [ -122.42689177863268, 37.650951932785532 ] } },
{ "type": "Feature", "properties": { "address": "650 SUNSET AVE.", "city": "SOUTH SAN FRANCISCO", "country": "USA", "county": "SAN MATEO", "countyfips": "06081", "districtid": "0637530", "end_grade": "08", "enrollment": 612.0, "fid": 14986, "ft_teacher": 34, "globalid": "f0ddcee8-08b5-480f-90ca-a8aaa4e38d7d", "latitude": 37.6627309, "level_": "MIDDLE", "level_clean": "Middle", "longitude": -122.4272172, "naics_code": "611110", "naics_desc": "ELEMENTARY AND SECONDARY SCHOOLS", "name": "PARKWAY HEIGHTS MIDDLE", "ncesid": "063753006348", "population": 646, "shelter_id": "10814163", "source": "https://nces.ed.gov/ccd/schoolsearch/school_list.asp?schoolid=063753006348", "source_dat": "Wed, 31 Jan 2024 00:00:00 GMT", "st_grade": "06", "state": "CA", "status": "1", "telephone": "(650) 877-8788", "type": "1", "val_date": "Wed, 24 Feb 2016 00:00:00 GMT", "val_method": "IMAGERY", "website": "NOT AVAILABLE", "zip": "94080", "zip4": "7343", "school_id": 174 }, "geometry": { "type": "Point", "coordinates": [ -122.427217218999331, 37.662730921994516 ] } },
{ "type": "Feature", "properties": { "address": "295 PONDEROSA RD.", "city": "SOUTH SAN FRANCISCO", "country": "USA", "county": "SAN MATEO", "countyfips": "06081", "districtid": "0637530", "end_grade": "05", "enrollment": 351.0, "fid": 14987, "ft_teacher": 18, "globalid": "301aa3b6-f247-4bf9-a62a-67d06ed5d0c6", "latitude": 37.6460593, "level_": "ELEMENTARY", "level_clean": "Elementary", "longitude": -122.4332276, "naics_code": "611110", "naics_desc": "ELEMENTARY AND SECONDARY SCHOOLS", "name": "PONDEROSA ELEMENTARY", "ncesid": "063753006349", "population": 369, "shelter_id": "10814164", "source": "https://nces.ed.gov/ccd/schoolsearch/school_list.asp?schoolid=063753006349", "source_dat": "Wed, 31 Jan 2024 00:00:00 GMT", "st_grade": "KG", "state": "CA", "status": "1", "telephone": "(650) 877-8825", "type": "1", "val_date": "Wed, 24 Feb 2016 00:00:00 GMT", "val_method": "IMAGERY", "website": "NOT AVAILABLE", "zip": "94080", "zip4": "4218", "school_id": 175 }, "geometry": { "type": "Point", "coordinates": [ -122.433227598674392, 37.646059282709771 ] } },
{ "type": "Feature", "properties": { "address": "400 B ST.", "city": "SOUTH SAN FRANCISCO", "country": "USA", "county": "SAN MATEO", "countyfips": "06081", "districtid": "0637530", "end_grade": "12", "enrollment": 1280.0, "fid": 14989, "ft_teacher": 66, "globalid": "52984521-bac4-4663-be89-4a603ae24133", "latitude": 37.6477807, "level_": "HIGH", "level_clean": "High", "longitude": -122.4270623, "naics_code": "611110", "naics_desc": "ELEMENTARY AND SECONDARY SCHOOLS", "name": "SOUTH SAN FRANCISCO HIGH", "ncesid": "063753006352", "population": 1346, "shelter_id": "10813904", "source": "https://nces.ed.gov/ccd/schoolsearch/school_list.asp?schoolid=063753006352", "source_dat": "Wed, 31 Jan 2024 00:00:00 GMT", "st_grade": "09", "state": "CA", "status": "1", "telephone": "(650) 877-8754", "type": "1", "val_date": "Wed, 24 Feb 2016 00:00:00 GMT", "val_method": "IMAGERY", "website": "NOT AVAILABLE", "zip": "94080", "zip4": "4425", "school_id": 176 }, "geometry": { "type": "Point", "coordinates": [ -122.427062281099637, 37.647780681333387 ] } },
{ "type": "Feature", "properties": { "address": "501 SPRUCE AVE.", "city": "SOUTH SAN FRANCISCO", "country": "USA", "county": "SAN MATEO", "countyfips": "06081", "districtid": "0637530", "end_grade": "05", "enrollment": 408.0, "fid": 14990, "ft_teacher": 18, "globalid": "e918214d-74d3-494b-b8a8-cba16bb8b991", "latitude": 37.6590841, "level_": "ELEMENTARY", "level_clean": "Elementary", "longitude": -122.4162519, "naics_code": "611110", "naics_desc": "ELEMENTARY AND SECONDARY SCHOOLS", "name": "SPRUCE ELEMENTARY", "ncesid": "063753006354", "population": 426, "shelter_id": "10814166", "source": "https://nces.ed.gov/ccd/schoolsearch/school_list.asp?schoolid=063753006354", "source_dat": "Wed, 31 Jan 2024 00:00:00 GMT", "st_grade": "KG", "state": "CA", "status": "1", "telephone": "(650) 877-8780", "type": "1", "val_date": "Wed, 24 Feb 2016 00:00:00 GMT", "val_method": "IMAGERY", "website": "NOT AVAILABLE", "zip": "94080", "zip4": "2749", "school_id": 177 }, "geometry": { "type": "Point", "coordinates": [ -122.41625189590809, 37.659084142319358 ] } },
{ "type": "Feature", "properties": { "address": "1200 MILLER AVE.", "city": "SOUTH SAN FRANCISCO", "country": "USA", "county": "SAN MATEO", "countyfips": "06081", "districtid": "0637530", "end_grade": "05", "enrollment": 334.0, "fid": 14991, "ft_teacher": 16, "globalid": "ce41ef11-8644-4dc5-9ffb-b1cb140fe2ba", "latitude": 37.6656365, "level_": "ELEMENTARY", "level_clean": "Elementary", "longitude": -122.436402, "naics_code": "611110", "naics_desc": "ELEMENTARY AND SECONDARY SCHOOLS", "name": "SUNSHINE GARDENS ELEMENTARY", "ncesid": "063753006355", "population": 350, "shelter_id": "10814167", "source": "https://nces.ed.gov/ccd/schoolsearch/school_list.asp?schoolid=063753006355", "source_dat": "Wed, 31 Jan 2024 00:00:00 GMT", "st_grade": "KG", "state": "CA", "status": "1", "telephone": "(650) 877-8784", "type": "1", "val_date": "Wed, 24 Feb 2016 00:00:00 GMT", "val_method": "IMAGERY", "website": "NOT AVAILABLE", "zip": "94080", "zip4": "1221", "school_id": 178 }, "geometry": { "type": "Point", "coordinates": [ -122.436402009445402, 37.665636481338616 ] } },
{ "type": "Feature", "properties": { "address": "2570 W.BOROUGH BLVD.", "city": "SOUTH SAN FRANCISCO", "country": "USA", "county": "SAN MATEO", "countyfips": "06081", "districtid": "0637530", "end_grade": "08", "enrollment": 491.0, "fid": 14992, "ft_teacher": 27, "globalid": "fcb7b21a-5ae9-4361-b788-91f66576fc7a", "latitude": 37.64434, "level_": "MIDDLE", "level_clean": "Middle", "longitude": -122.461137, "naics_code": "611110", "naics_desc": "ELEMENTARY AND SECONDARY SCHOOLS", "name": "WESTBOROUGH MIDDLE", "ncesid": "063753006356", "population": 518, "shelter_id": "10814168", "source": "https://nces.ed.gov/ccd/schoolsearch/school_list.asp?schoolid=063753006356", "source_dat": "Wed, 31 Jan 2024 00:00:00 GMT", "st_grade": "06", "state": "CA", "status": "1", "telephone": "(650) 877-8848", "type": "1", "val_date": "Wed, 24 Feb 2016 00:00:00 GMT", "val_method": "IMAGERY", "website": "NOT AVAILABLE", "zip": "94080", "zip4": "5115", "school_id": 179 }, "geometry": { "type": "Point", "coordinates": [ -122.461137018758492, 37.64434001817736 ] } },
{ "type": "Feature", "properties": { "address": "35 SCH ST.", "city": "SOUTH SAN FRANCISCO", "country": "USA", "county": "SAN MATEO", "countyfips": "06081", "districtid": "0637530", "end_grade": "05", "enrollment": 383.0, "fid": 14993, "ft_teacher": 18, "globalid": "6b726f05-fe88-4f3a-93e2-5d91315766b9", "latitude": 37.6634583, "level_": "ELEMENTARY", "level_clean": "Elementary", "longitude": -122.4100863, "naics_code": "611110", "naics_desc": "ELEMENTARY AND SECONDARY SCHOOLS", "name": "MARTIN ELEMENTARY", "ncesid": "063753009197", "population": 401, "shelter_id": "10814161", "source": "https://nces.ed.gov/ccd/schoolsearch/school_list.asp?schoolid=063753009197", "source_dat": "Wed, 31 Jan 2024 00:00:00 GMT", "st_grade": "KG", "state": "CA", "status": "1", "telephone": "(650) 877-3955", "type": "1", "val_date": "Wed, 24 Feb 2016 00:00:00 GMT", "val_method": "IMAGERY/OTHER", "website": "NOT AVAILABLE", "zip": "94080", "zip4": "2855", "school_id": 180 }, "geometry": { "type": "Point", "coordinates": [ -122.410086320227592, 37.663458342228758 ] } },
{ "type": "Feature", "properties": { "address": "201 W. ORANGE AVE.", "city": "SOUTH SAN FRANCISCO", "country": "USA", "county": "SAN MATEO", "countyfips": "06081", "districtid": "0637530", "end_grade": "12", "enrollment": 0.0, "fid": 14994, "ft_teacher": -999, "globalid": "5a218b78-f013-4e17-80dc-da0e49633b12", "latitude": 37.6518806, "level_": "HIGH", "level_clean": "High", "longitude": -122.4277485, "naics_code": "611110", "naics_desc": "ELEMENTARY AND SECONDARY SCHOOLS", "name": "COMMUNITY DAY", "ncesid": "063753013304", "population": 0, "shelter_id": "NOT AVAILABLE", "source": "https://nces.ed.gov/ccd/schoolsearch/school_list.asp?schoolid=063753013304", "source_dat": "Wed, 31 Jan 2024 00:00:00 GMT", "st_grade": "06", "state": "CA", "status": "1", "telephone": "(650) 616-3882", "type": "4", "val_date": "Tue, 26 May 2015 00:00:00 GMT", "val_method": "IMAGERY/OTHER", "website": "NOT AVAILABLE", "zip": "94080", "zip4": "4445", "school_id": 181 }, "geometry": { "type": "Point", "coordinates": [ -122.427748540262826, 37.651880587119457 ] } },
{ "type": "Feature", "properties": { "address": "1400 HILLSIDE BLVD.", "city": "SOUTH SAN FRANCISCO", "country": "USA", "county": "SAN MATEO", "countyfips": "06081", "districtid": "0637530", "end_grade": "05", "enrollment": 0.0, "fid": 14995, "ft_teacher": -999, "globalid": "2cbc97f5-7e7c-457b-909e-e99c1bd1aba0", "latitude": 37.669077, "level_": "ELEMENTARY", "level_clean": "Elementary", "longitude": -122.4248517, "naics_code": "611110", "naics_desc": "ELEMENTARY AND SECONDARY SCHOOLS", "name": "HILLSIDE ELEMENTARY", "ncesid": "063753013873", "population": 0, "shelter_id": "NOT AVAILABLE", "source": "https://nces.ed.gov/ccd/schoolsearch/school_list.asp?schoolid=063753013873", "source_dat": "Wed, 31 Jan 2024 00:00:00 GMT", "st_grade": "KG", "state": "CA", "status": "1", "telephone": "(650) 877-8720", "type": "1", "val_date": "Wed, 24 Oct 2018 00:00:00 GMT", "val_method": "IMAGERY/OTHER", "website": "http://www.ssfusd.org", "zip": "94080", "zip4": "1538", "school_id": 182 }, "geometry": { "type": "Point", "coordinates": [ -122.424851717832169, 37.669077039273972 ] } },
{ "type": "Feature", "properties": { "address": "375 WOODSIDE AVE. W1", "city": "SAN FRANCISCO", "country": "USA", "county": "SAN FRANCISCO", "countyfips": "06075", "districtid": "0691111", "end_grade": "12", "enrollment": 8.0, "fid": 16057, "ft_teacher": 2, "globalid": "878aa339-91ca-4142-bc08-3bb333aba323", "latitude": 37.7459434, "level_": "HIGH", "level_clean": "High", "longitude": -122.4524854, "naics_code": "611110", "naics_desc": "ELEMENTARY AND SECONDARY SCHOOLS", "name": "S.F. COUNTY COURT WOODSIDE LEARNING CTR", "ncesid": "069111109270", "population": 10, "shelter_id": "NOT AVAILABLE", "source": "https://nces.ed.gov/ccd/schoolsearch/school_list.asp?schoolid=069111109270", "source_dat": "Wed, 31 Jan 2024 00:00:00 GMT", "st_grade": "06", "state": "CA", "status": "1", "telephone": "(415) 753-7792", "type": "4", "val_date": "Tue, 08 Jun 2010 00:00:00 GMT", "val_method": "IMAGERY", "website": "http://www.sfusd.edu/", "zip": "94127", "zip4": "NOT AVAILABLE", "school_id": 183 }, "geometry": { "type": "Point", "coordinates": [ -122.45248538868961, 37.745943350005597 ] } },
{ "type": "Feature", "properties": { "address": "1325 FLORIDA ST.", "city": "SAN FRANCISCO", "country": "USA", "county": "SAN FRANCISCO", "countyfips": "06075", "districtid": "0691111", "end_grade": "12", "enrollment": 85.0, "fid": 16058, "ft_teacher": 6, "globalid": "01dc5366-6db3-458c-a13d-99202fd1ee8f", "latitude": 37.7657922, "level_": "HIGH", "level_clean": "High", "longitude": -122.420021, "naics_code": "611110", "naics_desc": "ELEMENTARY AND SECONDARY SCHOOLS", "name": "S.F. COUNTY OPPORTUNITY (HILLTOP)", "ncesid": "069111109472", "population": 91, "shelter_id": "NOT AVAILABLE", "source": "https://nces.ed.gov/ccd/schoolsearch/school_list.asp?schoolid=069111109472", "source_dat": "Wed, 31 Jan 2024 00:00:00 GMT", "st_grade": "06", "state": "CA", "status": "1", "telephone": "(415) 695-5606", "type": "4", "val_date": "Mon, 30 Oct 2017 00:00:00 GMT", "val_method": "IMAGERY", "website": "http://www.sfusd.edu/", "zip": "94110", "zip4": "4114", "school_id": 184 }, "geometry": { "type": "Point", "coordinates": [ -122.4200209662947, 37.765792240119829 ] } },
{ "type": "Feature", "properties": { "address": "3045 SANTIAGO ST.", "city": "SAN FRANCISCO", "country": "USA", "county": "SAN FRANCISCO", "countyfips": "06075", "districtid": "0691111", "end_grade": "12", "enrollment": 119.0, "fid": 16059, "ft_teacher": 3, "globalid": "3d7c2607-bbd5-4a37-a7bd-64004167e421", "latitude": 37.7436396, "level_": "OTHER", "level_clean": "Combined", "longitude": -122.4999509, "naics_code": "611110", "naics_desc": "ELEMENTARY AND SECONDARY SCHOOLS", "name": "S.F. COUNTY SPECIAL EDUCATION", "ncesid": "069111109473", "population": 122, "shelter_id": "NOT AVAILABLE", "source": "https://nces.ed.gov/ccd/schoolsearch/school_list.asp?schoolid=069111109473", "source_dat": "Wed, 31 Jan 2024 00:00:00 GMT", "st_grade": "KG", "state": "CA", "status": "1", "telephone": "(415) 759-2222", "type": "2", "val_date": "Mon, 09 Dec 2019 00:00:00 GMT", "val_method": "IMAGERY/OTHER", "website": "http://www.sfusd.edu/", "zip": "94116", "zip4": "1526", "school_id": 185 }, "geometry": { "type": "Point", "coordinates": [ -122.499950923696531, 37.743639616974825 ] } },
{ "type": "Feature", "properties": { "address": "727 GOLDEN GATE AVE.", "city": "SAN FRANCISCO", "country": "USA", "county": "SAN FRANCISCO", "countyfips": "06075", "districtid": "0691111", "end_grade": "12", "enrollment": 58.0, "fid": 16060, "ft_teacher": 4, "globalid": "cee7426d-e87b-400c-980f-6f72d4b5447d", "latitude": 37.7657574, "level_": "HIGH", "level_clean": "High", "longitude": -122.4200305, "naics_code": "611110", "naics_desc": "ELEMENTARY AND SECONDARY SCHOOLS", "name": "S.F. COUNTY CIVIC CENTER SECONDARY", "ncesid": "069111110647", "population": 62, "shelter_id": "NOT AVAILABLE", "source": "https://nces.ed.gov/ccd/schoolsearch/school_list.asp?schoolid=069111110647", "source_dat": "Wed, 31 Jan 2024 00:00:00 GMT", "st_grade": "06", "state": "CA", "status": "1", "telephone": "(415) 241-3000", "type": "4", "val_date": "Mon, 30 Oct 2017 00:00:00 GMT", "val_method": "IMAGERY", "website": "http://www.sfusd.edu/", "zip": "94102", "zip4": "3101", "school_id": 186 }, "geometry": { "type": "Point", "coordinates": [ -122.420030519792391, 37.765757410276279 ] } }
]
}
