{
"type": "FeatureCollection",
"name": "private_schools_sf",
"crs": { "type": "name", "properties": { "name": "urn:ogc:def:crs:OGC:1.3:CRS84" } },
"features": [
{ "type": "Feature", "properties": { "FID": 341, "NCESID": "00072439", "NAME": "ECOLE NOTRE DAME DES VICTOIRES SCHOOL", "ADDRESS": "659 PINE ST", "CITY": "SAN FRANCISCO", "STATE": "CA", "ZIP": "94108", "ZIP4": "3210", "TELEPHONE": "(415) 421-0069", "TYPE": "1", "STATUS": "1", "POPULATION": 279, "COUNTY": "SAN FRANCISCO", "COUNTYFIPS": "07506", "COUNTRY": "USA", "LATITUDE": 37.79111, "LONGITUDE": -122.406461, "NAICS_CODE": "611110", "NAICS_DESC": "ELEMENTARY AND SECONDARY SCHOOLS", "SOURCE": "https://nces.ed.gov/surveys/pss/privateschoolsearch/school_list.asp?SchoolID=00072439", "SOURCE_DAT": 1706659200000, "VAL_METHOD": "IMAGERY", "VAL_DATE": 1275868800000, "WEBSITE": "NOT AVAILABLE", "LEVEL_": "1", "ENROLLMENT": 258, "ST_GRADE": "3", "END_GRADE": "13", "FT_TEACHER": 21, "SHELTER_ID": "NOT AVAILABLE" }, "geometry": { "type": "Point", "coordinates": [ -13626224.908346181735396, 4549958.544286939315498 ] } },
{ "type": "Feature", "properties": { "FID": 342, "NCESID": "00072461", "NAME": "SCHOOL OF THE EPIPHANY", "ADDRESS": "600 ITALY AVE", "CITY": "SAN FRANCISCO", "STATE": "CA", "ZIP": "94112", "ZIP4": "3519", "TELEPHONE": "(415) 337-4030", "TYPE": "1", "STATUS": "1", "POPULATION": 194, "COUNTY": "SAN FRANCISCO", "COUNTYFIPS": "07506", "COUNTRY": "USA", "LATITUDE": 37.71572, "LONGITUDE": -122.434531, "NAICS_CODE": "611110", "NAICS_DESC": "ELEMENTARY AND SECONDARY SCHOOLS", "SOURCE": "https://nces.ed.gov/surveys/pss/privateschoolsearch/school_list.asp?SchoolID=00072461", "SOURCE_DAT": 1706659200000, "VAL_METHOD": "IMAGERY/OTHER", "VAL_DATE": 1275868800000, "WEBSITE": "NOT AVAILABLE", "LEVEL_": "1", "ENROLLMENT": 185, "ST_GRADE": "3", "END_GRADE": "13", "FT_TEACHER": 9, "SHELTER_ID": "10780967" }, "geometry": { "type": "Point", "coordinates": [ -13629349.646389396861196, 4539344.056197443045676 ] } },
{ "type": "Feature", "properties": { "FID": 343, "NCESID": "00072472", "NAME": "HOLY NAME ELEMENTARY SCHOOL", "ADDRESS": "1560 40TH AVE", "CITY": "SAN FRANCISCO", "STATE": "CA", "ZIP": "94122", "ZIP4": "3099", "TELEPHONE": "(415) 731-4077", "TYPE": "1", "STATUS": "1", "POPULATION": 379, "COUNTY": "SAN FRANCISCO", "COUNTYFIPS": "07506", "COUNTRY": "USA", "LATITUDE": 37.75761, "LONGITUDE": -122.498881, "NAICS_CODE": "611110", "NAICS_DESC": "ELEMENTARY AND SECONDARY SCHOOLS", "SOURCE": "https://nces.ed.gov/surveys/pss/privateschoolsearch/school_list.asp?SchoolID=00072472", "SOURCE_DAT": 1706659200000, "VAL_METHOD": "IMAGERY/OTHER", "VAL_DATE": 1262131200000, "WEBSITE": "NOT AVAILABLE", "LEVEL_": "1", "ENROLLMENT": 344, "ST_GRADE": "2", "END_GRADE": "13", "FT_TEACHER": 35, "SHELTER_ID": "NOT AVAILABLE" }, "geometry": { "type": "Point", "coordinates": [ -13636513.055694529786706, 4545240.597393214702606 ] } },
{ "type": "Feature", "properties": { "FID": 344, "NCESID": "00072483", "NAME": "ICA CRISTO REY", "ADDRESS": "3625 24TH ST", "CITY": "SAN FRANCISCO", "STATE": "CA", "ZIP": "94110", "ZIP4": "NOT AVAILABLE", "TELEPHONE": "(415) 824-2052", "TYPE": "1", "STATUS": "1", "POPULATION": 369, "COUNTY": "SAN FRANCISCO", "COUNTYFIPS": "07506", "COUNTRY": "USA", "LATITUDE": 37.7518, "LONGITUDE": -122.423471, "NAICS_CODE": "611110", "NAICS_DESC": "ELEMENTARY AND SECONDARY SCHOOLS", "SOURCE": "https://nces.ed.gov/surveys/pss/privateschoolsearch/school_list.asp?SchoolID=00072483", "SOURCE_DAT": 1706659200000, "VAL_METHOD": "IMAGERY/OTHER", "VAL_DATE": 1262131200000, "WEBSITE": "NOT AVAILABLE", "LEVEL_": "2", "ENROLLMENT": 336, "ST_GRADE": "14", "END_GRADE": "17", "FT_TEACHER": 33, "SHELTER_ID": "NOT AVAILABLE" }, "geometry": { "type": "Point", "coordinates": [ -13628118.452908098697662, 4544422.567810168489814 ] } },
{ "type": "Feature", "properties": { "FID": 345, "NCESID": "00072508", "NAME": "ST JOHN THE EVANGELIST SCHOOL", "ADDRESS": "925 CHENERY ST", "CITY": "SAN FRANCISCO", "STATE": "CA", "ZIP": "94131", "ZIP4": "2962", "TELEPHONE": "(415) 584-8383", "TYPE": "1", "STATUS": "1", "POPULATION": 151, "COUNTY": "SAN FRANCISCO", "COUNTYFIPS": "06075", "COUNTRY": "USA", "LATITUDE": 37.7350789, "LONGITUDE": -122.4379593, "NAICS_CODE": "611110", "NAICS_DESC": "ELEMENTARY AND SECONDARY SCHOOLS", "SOURCE": "https://nces.ed.gov/surveys/pss/privateschoolsearch/school_list.asp?SchoolID=00072508", "SOURCE_DAT": 1706659200000, "VAL_METHOD": "IMAGERY/OTHER", "VAL_DATE": 1710720000000, "WEBSITE": "NOT AVAILABLE", "LEVEL_": "1", "ENROLLMENT": 138, "ST_GRADE": "3", "END_GRADE": "13", "FT_TEACHER": 13, "SHELTER_ID": "NOT AVAILABLE" }, "geometry": { "type": "Point", "coordinates": [ -13629731.279915794730186, 4542068.65493231266737 ] } },
{ "type": "Feature", "properties": { "FID": 346, "NCESID": "00072541", "NAME": "MISSION DOLORES ACADEMY", "ADDRESS": "3371 16TH ST", "CITY": "SAN FRANCISCO", "STATE": "CA", "ZIP": "94114", "ZIP4": "1712", "TELEPHONE": "(415) 346-9500", "TYPE": "1", "STATUS": "1", "POPULATION": 232, "COUNTY": "SAN FRANCISCO", "COUNTYFIPS": "07506", "COUNTRY": "USA", "LATITUDE": 37.764362, "LONGITUDE": -122.42808, "NAICS_CODE": "611110", "NAICS_DESC": "ELEMENTARY AND SECONDARY SCHOOLS", "SOURCE": "https://nces.ed.gov/surveys/pss/privateschoolsearch/school_list.asp?SchoolID=00072541", "SOURCE_DAT": 1706659200000, "VAL_METHOD": "IMAGERY/OTHER", "VAL_DATE": 1262131200000, "WEBSITE": "NOT AVAILABLE", "LEVEL_": "1", "ENROLLMENT": 221, "ST_GRADE": "3", "END_GRADE": "13", "FT_TEACHER": 11, "SHELTER_ID": "NOT AVAILABLE" }, "geometry": { "type": "Point", "coordinates": [ -13628631.524375023320317, 4546191.33807513769716 ] } },
{ "type": "Feature", "properties": { "FID": 347, "NCESID": "00072574", "NAME": "OUR LADY OF THE VISITACION SCHOOL", "ADDRESS": "795 SUNNYDALE AVE", "CITY": "SAN FRANCISCO", "STATE": "CA", "ZIP": "94134", "ZIP4": "2842", "TELEPHONE": "(415) 239-7840", "TYPE": "1", "STATUS": "1", "POPULATION": 255, "COUNTY": "SAN FRANCISCO", "COUNTYFIPS": "07506", "COUNTRY": "USA", "LATITUDE": 37.709589, "LONGITUDE": -122.409619, "NAICS_CODE": "611110", "NAICS_DESC": "ELEMENTARY AND SECONDARY SCHOOLS", "SOURCE": "https://nces.ed.gov/surveys/pss/privateschoolsearch/school_list.asp?SchoolID=00072574", "SOURCE_DAT": 1706659200000, "VAL_METHOD": "IMAGERY/OTHER", "VAL_DATE": 1262131200000, "WEBSITE": "NOT AVAILABLE", "LEVEL_": "1", "ENROLLMENT": 244, "ST_GRADE": "3", "END_GRADE": "13", "FT_TEACHER": 11, "SHELTER_ID": "NOT AVAILABLE" }, "geometry": { "type": "Point", "coordinates": [ -13626576.45529161952436, 4538481.321016470901668 ] } },
{ "type": "Feature", "properties": { "FID": 348, "NCESID": "00072596", "NAME": "ARCHBISHOP RIORDAN HIGH SCHOOL", "ADDRESS": "175 FRIDA KAHLO WAY", "CITY": "SAN FRANCISCO", "STATE": "CA", "ZIP": "94112", "ZIP4": "1822", "TELEPHONE": "(415) 731-6700", "TYPE": "1", "STATUS": "1", "POPULATION": 1041, "COUNTY": "SAN FRANCISCO", "COUNTYFIPS": "06075", "COUNTRY": "USA", "LATITUDE": 37.728149, "LONGITUDE": -122.452783, "NAICS_CODE": "611110", "NAICS_DESC": "ELEMENTARY AND SECONDARY SCHOOLS", "SOURCE": "https://nces.ed.gov/surveys/pss/privateschoolsearch/school_list.asp?SchoolID=00072596", "SOURCE_DAT": 1706659200000, "VAL_METHOD": "IMAGERY/OTHER", "VAL_DATE": 1710288000000, "WEBSITE": "NOT AVAILABLE", "LEVEL_": "2", "ENROLLMENT": 976, "ST_GRADE": "14", "END_GRADE": "17", "FT_TEACHER": 65, "SHELTER_ID": "NOT AVAILABLE" }, "geometry": { "type": "Point", "coordinates": [ -13631381.4498276617378, 4541093.245190496556461 ] } },
{ "type": "Feature", "properties": { "FID": 349, "NCESID": "00072654", "NAME": "ST ANNE ELEMENTARY SCHOOL", "ADDRESS": "1320 14TH AVE", "CITY": "SAN FRANCISCO", "STATE": "CA", "ZIP": "94122", "ZIP4": "NOT AVAILABLE", "TELEPHONE": "(415) 664-7977", "TYPE": "1", "STATUS": "1", "POPULATION": 241, "COUNTY": "SAN FRANCISCO", "COUNTYFIPS": "07506", "COUNTRY": "USA", "LATITUDE": 37.763396, "LONGITUDE": -122.471458, "NAICS_CODE": "611110", "NAICS_DESC": "ELEMENTARY AND SECONDARY SCHOOLS", "SOURCE": "https://nces.ed.gov/surveys/pss/privateschoolsearch/school_list.asp?SchoolID=00072654", "SOURCE_DAT": 1706659200000, "VAL_METHOD": "IMAGERY/OTHER", "VAL_DATE": 1262131200000, "WEBSITE": "NOT AVAILABLE", "LEVEL_": "1", "ENROLLMENT": 227, "ST_GRADE": "3", "END_GRADE": "13", "FT_TEACHER": 14, "SHELTER_ID": "NOT AVAILABLE" }, "geometry": { "type": "Point", "coordinates": [ -13633460.341279432177544, 4546055.31154721416533 ] } },
{ "type": "Feature", "properties": { "FID": 350, "NCESID": "00072665", "NAME": "ST ANTHONY - IMMACULATE CONCEPTION SCHOOL", "ADDRESS": "299 PRECITA AVE", "CITY": "SAN FRANCISCO", "STATE": "CA", "ZIP": "94110", "ZIP4": "4627", "TELEPHONE": "(415) 648-2008", "TYPE": "1", "STATUS": "1", "POPULATION": 195, "COUNTY": "SAN FRANCISCO", "COUNTYFIPS": "06075", "COUNTRY": "USA", "LATITUDE": 37.7475182, "LONGITUDE": -122.4138822, "NAICS_CODE": "611110", "NAICS_DESC": "ELEMENTARY AND SECONDARY SCHOOLS", "SOURCE": "https://nces.ed.gov/surveys/pss/privateschoolsearch/school_list.asp?SchoolID=00072665", "SOURCE_DAT": 1706659200000, "VAL_METHOD": "IMAGERY/OTHER", "VAL_DATE": 1710720000000, "WEBSITE": "NOT AVAILABLE", "LEVEL_": "1", "ENROLLMENT": 185, "ST_GRADE": "3", "END_GRADE": "13", "FT_TEACHER": 10, "SHELTER_ID": "NOT AVAILABLE" }, "geometry": { "type": "Point", "coordinates": [ -13627051.035869237035513, 4543819.742106317542493 ] } },
{ "type": "Feature", "properties": { "FID": 351, "NCESID": "00072687", "NAME": "ST BRIGID SCHOOL", "ADDRESS": "2250 FRANKLIN ST", "CITY": "SAN FRANCISCO", "STATE": "CA", "ZIP": "94109", "ZIP4": "2496", "TELEPHONE": "(415) 673-4523", "TYPE": "1", "STATUS": "1", "POPULATION": 152, "COUNTY": "SAN FRANCISCO", "COUNTYFIPS": "07506", "COUNTRY": "USA", "LATITUDE": 37.795425, "LONGITUDE": -122.424926, "NAICS_CODE": "611110", "NAICS_DESC": "ELEMENTARY AND SECONDARY SCHOOLS", "SOURCE": "https://nces.ed.gov/surveys/pss/privateschoolsearch/school_list.asp?SchoolID=00072687", "SOURCE_DAT": 1706659200000, "VAL_METHOD": "IMAGERY", "VAL_DATE": 1275868800000, "WEBSITE": "NOT AVAILABLE", "LEVEL_": "1", "ENROLLMENT": 140, "ST_GRADE": "3", "END_GRADE": "13", "FT_TEACHER": 12, "SHELTER_ID": "NOT AVAILABLE" }, "geometry": { "type": "Point", "coordinates": [ -13628280.422728072851896, 4550566.399388602003455 ] } },
{ "type": "Feature", "properties": { "FID": 352, "NCESID": "00072698", "NAME": "ST CECILIA SCHOOL", "ADDRESS": "660 VICENTE ST", "CITY": "SAN FRANCISCO", "STATE": "CA", "ZIP": "94116", "ZIP4": "3077", "TELEPHONE": "(415) 731-8400", "TYPE": "1", "STATUS": "1", "POPULATION": 556, "COUNTY": "SAN FRANCISCO", "COUNTYFIPS": "07506", "COUNTRY": "USA", "LATITUDE": 37.7397, "LONGITUDE": -122.474195, "NAICS_CODE": "611110", "NAICS_DESC": "ELEMENTARY AND SECONDARY SCHOOLS", "SOURCE": "https://nces.ed.gov/surveys/pss/privateschoolsearch/school_list.asp?SchoolID=00072698", "SOURCE_DAT": 1706659200000, "VAL_METHOD": "IMAGERY/OTHER", "VAL_DATE": 1262131200000, "WEBSITE": "NOT AVAILABLE", "LEVEL_": "1", "ENROLLMENT": 531, "ST_GRADE": "3", "END_GRADE": "13", "FT_TEACHER": 25, "SHELTER_ID": "NOT AVAILABLE" }, "geometry": { "type": "Point", "coordinates": [ -13633765.022760501131415, 4542719.132629078812897 ] } },
{ "type": "Feature", "properties": { "FID": 353, "NCESID": "00072745", "NAME": "ST FINN BARR CATHOLIC SCHOOL", "ADDRESS": "419 HEARST AVE", "CITY": "SAN FRANCISCO", "STATE": "CA", "ZIP": "94112", "ZIP4": "1398", "TELEPHONE": "(415) 333-1800", "TYPE": "1", "STATUS": "1", "POPULATION": 261, "COUNTY": "SAN FRANCISCO", "COUNTYFIPS": "06075", "COUNTRY": "USA", "LATITUDE": 37.7303982, "LONGITUDE": -122.4473986, "NAICS_CODE": "611110", "NAICS_DESC": "ELEMENTARY AND SECONDARY SCHOOLS", "SOURCE": "https://nces.ed.gov/surveys/pss/privateschoolsearch/school_list.asp?SchoolID=00072745", "SOURCE_DAT": 1706659200000, "VAL_METHOD": "IMAGERY/OTHER", "VAL_DATE": 1710720000000, "WEBSITE": "NOT AVAILABLE", "LEVEL_": "1", "ENROLLMENT": 250, "ST_GRADE": "3", "END_GRADE": "13", "FT_TEACHER": 11, "SHELTER_ID": "NOT AVAILABLE" }, "geometry": { "type": "Point", "coordinates": [ -13630782.06243285164237, 4541409.818354279734194 ] } },
{ "type": "Feature", "properties": { "FID": 354, "NCESID": "00072756", "NAME": "ST GABRIEL ELEMENTARY SCHOOL", "ADDRESS": "2550 41ST AVE", "CITY": "SAN FRANCISCO", "STATE": "CA", "ZIP": "94116", "ZIP4": "2797", "TELEPHONE": "(415) 566-0314", "TYPE": "1", "STATUS": "1", "POPULATION": 470, "COUNTY": "SAN FRANCISCO", "COUNTYFIPS": "07506", "COUNTRY": "USA", "LATITUDE": 37.73953, "LONGITUDE": -122.498681, "NAICS_CODE": "611110", "NAICS_DESC": "ELEMENTARY AND SECONDARY SCHOOLS", "SOURCE": "https://nces.ed.gov/surveys/pss/privateschoolsearch/school_list.asp?SchoolID=00072756", "SOURCE_DAT": 1706659200000, "VAL_METHOD": "IMAGERY/OTHER", "VAL_DATE": 1262131200000, "WEBSITE": "NOT AVAILABLE", "LEVEL_": "1", "ENROLLMENT": 443, "ST_GRADE": "2", "END_GRADE": "13", "FT_TEACHER": 27, "SHELTER_ID": "NOT AVAILABLE" }, "geometry": { "type": "Point", "coordinates": [ -13636490.791770784184337, 4542695.202087199315429 ] } },
{ "type": "Feature", "properties": { "FID": 355, "NCESID": "00072767", "NAME": "ST IGNATIUS COLLEGE PREPARATORY", "ADDRESS": "2001 37TH AVE", "CITY": "SAN FRANCISCO", "STATE": "CA", "ZIP": "94116", "ZIP4": "1165", "TELEPHONE": "(415) 731-7500", "TYPE": "1", "STATUS": "1", "POPULATION": 1720, "COUNTY": "SAN FRANCISCO", "COUNTYFIPS": "07506", "COUNTRY": "USA", "LATITUDE": 37.748062, "LONGITUDE": -122.495913, "NAICS_CODE": "611110", "NAICS_DESC": "ELEMENTARY AND SECONDARY SCHOOLS", "SOURCE": "https://nces.ed.gov/surveys/pss/privateschoolsearch/school_list.asp?SchoolID=00072767", "SOURCE_DAT": 1706659200000, "VAL_METHOD": "IMAGERY", "VAL_DATE": 1275868800000, "WEBSITE": "NOT AVAILABLE", "LEVEL_": "3", "ENROLLMENT": 1589, "ST_GRADE": "11", "END_GRADE": "17", "FT_TEACHER": 131, "SHELTER_ID": "10780985" }, "geometry": { "type": "Point", "coordinates": [ -13636182.659426584839821, 4543896.30333146918565 ] } },
{ "type": "Feature", "properties": { "FID": 356, "NCESID": "00072869", "NAME": "ST PETER'S SCHOOL", "ADDRESS": "1266 FLORIDA ST", "CITY": "SAN FRANCISCO", "STATE": "CA", "ZIP": "94110", "ZIP4": "4192", "TELEPHONE": "(415) 647-8662", "TYPE": "1", "STATUS": "1", "POPULATION": 208, "COUNTY": "SAN FRANCISCO", "COUNTYFIPS": "07506", "COUNTRY": "USA", "LATITUDE": 37.751661, "LONGITUDE": -122.410176, "NAICS_CODE": "611110", "NAICS_DESC": "ELEMENTARY AND SECONDARY SCHOOLS", "SOURCE": "https://nces.ed.gov/surveys/pss/privateschoolsearch/school_list.asp?SchoolID=00072869", "SOURCE_DAT": 1706659200000, "VAL_METHOD": "IMAGERY/OTHER", "VAL_DATE": 1262131200000, "WEBSITE": "NOT AVAILABLE", "LEVEL_": "1", "ENROLLMENT": 196, "ST_GRADE": "3", "END_GRADE": "13", "FT_TEACHER": 12, "SHELTER_ID": "NOT AVAILABLE" }, "geometry": { "type": "Point", "coordinates": [ -13626638.460204115137458, 4544402.997950810939074 ] } },
{ "type": "Feature", "properties": { "FID": 357, "NCESID": "00072891", "NAME": "STS PETER & PAUL SCHOOL", "ADDRESS": "660 FILBERT ST", "CITY": "SAN FRANCISCO", "STATE": "CA", "ZIP": "94133", "ZIP4": "2805", "TELEPHONE": "(415) 421-5219", "TYPE": "1", "STATUS": "1", "POPULATION": 168, "COUNTY": "SAN FRANCISCO", "COUNTYFIPS": "06075", "COUNTRY": "USA", "LATITUDE": 37.80158, "LONGITUDE": -122.410191, "NAICS_CODE": "611110", "NAICS_DESC": "ELEMENTARY AND SECONDARY SCHOOLS", "SOURCE": "https://nces.ed.gov/surveys/pss/privateschoolsearch/school_list.asp?SchoolID=00072891", "SOURCE_DAT": 1706659200000, "VAL_METHOD": "IMAGERY/OTHER", "VAL_DATE": 1710720000000, "WEBSITE": "NOT AVAILABLE", "LEVEL_": "1", "ENROLLMENT": 155, "ST_GRADE": "3", "END_GRADE": "13", "FT_TEACHER": 13, "SHELTER_ID": "NOT AVAILABLE" }, "geometry": { "type": "Point", "coordinates": [ -13626640.130073482170701, 4551433.51739346049726 ] } },
{ "type": "Feature", "properties": { "FID": 358, "NCESID": "00072905", "NAME": "ST PHILIP SCHOOL", "ADDRESS": "665 ELIZABETH ST", "CITY": "SAN FRANCISCO", "STATE": "CA", "ZIP": "94114", "ZIP4": "3229", "TELEPHONE": "(415) 824-8467", "TYPE": "1", "STATUS": "1", "POPULATION": 273, "COUNTY": "SAN FRANCISCO", "COUNTYFIPS": "07506", "COUNTRY": "USA", "LATITUDE": 37.75176, "LONGITUDE": -122.435511, "NAICS_CODE": "611110", "NAICS_DESC": "ELEMENTARY AND SECONDARY SCHOOLS", "SOURCE": "https://nces.ed.gov/surveys/pss/privateschoolsearch/school_list.asp?SchoolID=00072905", "SOURCE_DAT": 1706659200000, "VAL_METHOD": "IMAGERY/OTHER", "VAL_DATE": 1262131200000, "WEBSITE": "NOT AVAILABLE", "LEVEL_": "1", "ENROLLMENT": 263, "ST_GRADE": "3", "END_GRADE": "13", "FT_TEACHER": 10, "SHELTER_ID": "NOT AVAILABLE" }, "geometry": { "type": "Point", "coordinates": [ -13629458.739515624940395, 4544416.936280557885766 ] } },
{ "type": "Feature", "properties": { "FID": 359, "NCESID": "00072927", "NAME": "ST STEPHEN SCHOOL", "ADDRESS": "401 EUCALYPTUS DR", "CITY": "SAN FRANCISCO", "STATE": "CA", "ZIP": "94132", "ZIP4": "1500", "TELEPHONE": "(415) 664-8331", "TYPE": "1", "STATUS": "1", "POPULATION": 271, "COUNTY": "SAN FRANCISCO", "COUNTYFIPS": "07506", "COUNTRY": "USA", "LATITUDE": 37.73065, "LONGITUDE": -122.477711, "NAICS_CODE": "611110", "NAICS_DESC": "ELEMENTARY AND SECONDARY SCHOOLS", "SOURCE": "https://nces.ed.gov/surveys/pss/privateschoolsearch/school_list.asp?SchoolID=00072927", "SOURCE_DAT": 1706659200000, "VAL_METHOD": "IMAGERY/OTHER", "VAL_DATE": 1262131200000, "WEBSITE": "NOT AVAILABLE", "LEVEL_": "1", "ENROLLMENT": 258, "ST_GRADE": "2", "END_GRADE": "13", "FT_TEACHER": 13, "SHELTER_ID": "NOT AVAILABLE" }, "geometry": { "type": "Point", "coordinates": [ -13634156.422019315883517, 4541445.257678272202611 ] } },
{ "type": "Feature", "properties": { "FID": 360, "NCESID": "00072949", "NAME": "ST THOMAS MORE ELEMENTARY SCHOOL", "ADDRESS": "50 THOMAS MORE WAY", "CITY": "SAN FRANCISCO", "STATE": "CA", "ZIP": "94132", "ZIP4": "2911", "TELEPHONE": "(415) 337-0100", "TYPE": "1", "STATUS": "1", "POPULATION": 256, "COUNTY": "SAN FRANCISCO", "COUNTYFIPS": "07506", "COUNTRY": "USA", "LATITUDE": 37.712355, "LONGITUDE": -122.473703, "NAICS_CODE": "611110", "NAICS_DESC": "ELEMENTARY AND SECONDARY SCHOOLS", "SOURCE": "https://nces.ed.gov/surveys/pss/privateschoolsearch/school_list.asp?SchoolID=00072949", "SOURCE_DAT": 1706659200000, "VAL_METHOD": "IMAGERY/OTHER", "VAL_DATE": 1262131200000, "WEBSITE": "NOT AVAILABLE", "LEVEL_": "1", "ENROLLMENT": 242, "ST_GRADE": "2", "END_GRADE": "13", "FT_TEACHER": 14, "SHELTER_ID": "NOT AVAILABLE" }, "geometry": { "type": "Point", "coordinates": [ -13633710.253548137843609, 4538870.535021227784455 ] } },
{ "type": "Feature", "properties": { "FID": 361, "NCESID": "00072971", "NAME": "ST VINCENT DE PAUL SCHOOL", "ADDRESS": "2350 GREEN ST", "CITY": "SAN FRANCISCO", "STATE": "CA", "ZIP": "94123", "ZIP4": "4625", "TELEPHONE": "(415) 346-5505", "TYPE": "1", "STATUS": "1", "POPULATION": 245, "COUNTY": "SAN FRANCISCO", "COUNTYFIPS": "06075", "COUNTRY": "USA", "LATITUDE": 37.7961, "LONGITUDE": -122.437941, "NAICS_CODE": "611110", "NAICS_DESC": "ELEMENTARY AND SECONDARY SCHOOLS", "SOURCE": "https://nces.ed.gov/surveys/pss/privateschoolsearch/school_list.asp?SchoolID=00072971", "SOURCE_DAT": 1706659200000, "VAL_METHOD": "IMAGERY/OTHER", "VAL_DATE": 1710720000000, "WEBSITE": "NOT AVAILABLE", "LEVEL_": "1", "ENROLLMENT": 229, "ST_GRADE": "3", "END_GRADE": "13", "FT_TEACHER": 16, "SHELTER_ID": "NOT AVAILABLE" }, "geometry": { "type": "Point", "coordinates": [ -13629729.245938822627068, 4550661.490106509998441 ] } },
{ "type": "Feature", "properties": { "FID": 366, "NCESID": "00073228", "NAME": "ALL SOULS CATHOLIC ELEMENTARY SCHOOL", "ADDRESS": "479 MILLER AVE", "CITY": "SOUTH SAN FRANCISCO", "STATE": "CA", "ZIP": "94080", "ZIP4": "2703", "TELEPHONE": "(650) 583-3562", "TYPE": "1", "STATUS": "1", "POPULATION": 246, "COUNTY": "SAN MATEO", "COUNTYFIPS": "08106", "COUNTRY": "USA", "LATITUDE": 37.657249, "LONGITUDE": -122.415312, "NAICS_CODE": "611110", "NAICS_DESC": "ELEMENTARY AND SECONDARY SCHOOLS", "SOURCE": "https://nces.ed.gov/surveys/pss/privateschoolsearch/school_list.asp?SchoolID=00073228", "SOURCE_DAT": 1706659200000, "VAL_METHOD": "IMAGERY/OTHER", "VAL_DATE": 1262131200000, "WEBSITE": "NOT AVAILABLE", "LEVEL_": "1", "ENROLLMENT": 235, "ST_GRADE": "3", "END_GRADE": "13", "FT_TEACHER": 11, "SHELTER_ID": "NOT AVAILABLE" }, "geometry": { "type": "Point", "coordinates": [ -13627210.197145139798522, 4531119.103289631195366 ] } },
{ "type": "Feature", "properties": { "FID": 367, "NCESID": "00073261", "NAME": "ST VERONICA CATHOLIC SCHOOL", "ADDRESS": "434 ALIDA WAY", "CITY": "SOUTH SAN FRANCISCO", "STATE": "CA", "ZIP": "94080", "ZIP4": "4399", "TELEPHONE": "(650) 589-3909", "TYPE": "1", "STATUS": "1", "POPULATION": 289, "COUNTY": "SAN MATEO", "COUNTYFIPS": "08106", "COUNTRY": "USA", "LATITUDE": 37.6461, "LONGITUDE": -122.429851, "NAICS_CODE": "611110", "NAICS_DESC": "ELEMENTARY AND SECONDARY SCHOOLS", "SOURCE": "https://nces.ed.gov/surveys/pss/privateschoolsearch/school_list.asp?SchoolID=00073261", "SOURCE_DAT": 1706659200000, "VAL_METHOD": "IMAGERY/OTHER", "VAL_DATE": 1262131200000, "WEBSITE": "NOT AVAILABLE", "LEVEL_": "1", "ENROLLMENT": 276, "ST_GRADE": "3", "END_GRADE": "13", "FT_TEACHER": 13, "SHELTER_ID": "NOT AVAILABLE" }, "geometry": { "type": "Point", "coordinates": [ -13628828.671174488961697, 4529551.540092328563333 ] } },
{ "type": "Feature", "properties": { "FID": 576, "NCESID": "00079514", "NAME": "LIVE OAK SCHOOL", "ADDRESS": "1555 MARIPOSA ST", "CITY": "SAN FRANCISCO", "STATE": "CA", "ZIP": "94107", "ZIP4": "2333", "TELEPHONE": "(415) 861-8840", "TYPE": "1", "STATUS": "1", "POPULATION": 489, "COUNTY": "SAN FRANCISCO", "COUNTYFIPS": "07506", "COUNTRY": "USA", "LATITUDE": 37.76356, "LONGITUDE": -122.399461, "NAICS_CODE": "611110", "NAICS_DESC": "ELEMENTARY AND SECONDARY SCHOOLS", "SOURCE": "https://nces.ed.gov/surveys/pss/privateschoolsearch/school_list.asp?SchoolID=00079514", "SOURCE_DAT": 1706659200000, "VAL_METHOD": "IMAGERY", "VAL_DATE": 1275868800000, "WEBSITE": "NOT AVAILABLE", "LEVEL_": "1", "ENROLLMENT": 420, "ST_GRADE": "3", "END_GRADE": "13", "FT_TEACHER": 69, "SHELTER_ID": "NOT AVAILABLE" }, "geometry": { "type": "Point", "coordinates": [ -13625445.671916188672185, 4546078.404887869022787 ] } },
{ "type": "Feature", "properties": { "FID": 600, "NCESID": "00080858", "NAME": "TOWN SCHOOL FOR BOYS", "ADDRESS": "2750 JACKSON ST", "CITY": "SAN FRANCISCO", "STATE": "CA", "ZIP": "94115", "ZIP4": "1144", "TELEPHONE": "(415) 746-1114", "TYPE": "1", "STATUS": "1", "POPULATION": 482, "COUNTY": "SAN FRANCISCO", "COUNTYFIPS": "07506", "COUNTRY": "USA", "LATITUDE": 37.79203, "LONGITUDE": -122.440121, "NAICS_CODE": "611110", "NAICS_DESC": "ELEMENTARY AND SECONDARY SCHOOLS", "SOURCE": "https://nces.ed.gov/surveys/pss/privateschoolsearch/school_list.asp?SchoolID=00080858", "SOURCE_DAT": 1706659200000, "VAL_METHOD": "IMAGERY", "VAL_DATE": 1275868800000, "WEBSITE": "NOT AVAILABLE", "LEVEL_": "1", "ENROLLMENT": 414, "ST_GRADE": "3", "END_GRADE": "13", "FT_TEACHER": 68, "SHELTER_ID": "NOT AVAILABLE" }, "geometry": { "type": "Point", "coordinates": [ -13629971.92240728251636, 4550088.141975726000965 ] } },
{ "type": "Feature", "properties": { "FID": 639, "NCESID": "00082345", "NAME": "WEST PORTAL LUTHERAN SCHOOL", "ADDRESS": "200 SLOAT BLVD", "CITY": "SAN FRANCISCO", "STATE": "CA", "ZIP": "94132", "ZIP4": "1621", "TELEPHONE": "(415) 665-6330", "TYPE": "1", "STATUS": "1", "POPULATION": 361, "COUNTY": "SAN FRANCISCO", "COUNTYFIPS": "07506", "COUNTRY": "USA", "LATITUDE": 37.735, "LONGITUDE": -122.474141, "NAICS_CODE": "611110", "NAICS_DESC": "ELEMENTARY AND SECONDARY SCHOOLS", "SOURCE": "https://nces.ed.gov/surveys/pss/privateschoolsearch/school_list.asp?SchoolID=00082345", "SOURCE_DAT": 1706659200000, "VAL_METHOD": "IMAGERY/OTHER", "VAL_DATE": 1262131200000, "WEBSITE": "NOT AVAILABLE", "LEVEL_": "1", "ENROLLMENT": 343, "ST_GRADE": "3", "END_GRADE": "13", "FT_TEACHER": 18, "SHELTER_ID": "NOT AVAILABLE" }, "geometry": { "type": "Point", "coordinates": [ -13633759.011431010439992, 4542057.542781390249729 ] } },
{ "type": "Feature", "properties": { "FID": 640, "NCESID": "00082356", "NAME": "ZION LUTHERAN SCHOOL", "ADDRESS": "495 9TH AVE", "CITY": "SAN FRANCISCO", "STATE": "CA", "ZIP": "94118", "ZIP4": "2912", "TELEPHONE": "(415) 221-7500", "TYPE": "1", "STATUS": "1", "POPULATION": 165, "COUNTY": "SAN FRANCISCO", "COUNTYFIPS": "07506", "COUNTRY": "USA", "LATITUDE": 37.77924, "LONGITUDE": -122.467631, "NAICS_CODE": "611110", "NAICS_DESC": "ELEMENTARY AND SECONDARY SCHOOLS", "SOURCE": "https://nces.ed.gov/surveys/pss/privateschoolsearch/school_list.asp?SchoolID=00082356", "SOURCE_DAT": 1706659200000, "VAL_METHOD": "IMAGERY/OTHER", "VAL_DATE": 1292716800000, "WEBSITE": "NOT AVAILABLE", "LEVEL_": "1", "ENROLLMENT": 152, "ST_GRADE": "3", "END_GRADE": "13", "FT_TEACHER": 13, "SHELTER_ID": "10789744" }, "geometry": { "type": "Point", "coordinates": [ -13633034.321564134210348, 4548286.597260429523885 ] } },
{ "type": "Feature", "properties": { "FID": 658, "NCESID": "00083145", "NAME": "SAN FRANCISCO CHRISTIAN SCHOOL", "ADDRESS": "25 WHITTIER ST", "CITY": "SAN FRANCISCO", "STATE": "CA", "ZIP": "94112", "ZIP4": "4295", "TELEPHONE": "(415) 586-1117", "TYPE": "1", "STATUS": "1", "POPULATION": 280, "COUNTY": "SAN FRANCISCO", "COUNTYFIPS": "07506", "COUNTRY": "USA", "LATITUDE": 37.71004, "LONGITUDE": -122.447751, "NAICS_CODE": "611110", "NAICS_DESC": "ELEMENTARY AND SECONDARY SCHOOLS", "SOURCE": "https://nces.ed.gov/surveys/pss/privateschoolsearch/school_list.asp?SchoolID=00083145", "SOURCE_DAT": 1706659200000, "VAL_METHOD": "IMAGERY", "VAL_DATE": 1275955200000, "WEBSITE": "NOT AVAILABLE", "LEVEL_": "3", "ENROLLMENT": 258, "ST_GRADE": "3", "END_GRADE": "17", "FT_TEACHER": 22, "SHELTER_ID": "NOT AVAILABLE" }, "geometry": { "type": "Point", "coordinates": [ -13630821.290147004649043, 4538544.781908714212477 ] } },
{ "type": "Feature", "properties": { "FID": 669, "NCESID": "00083495", "NAME": "KATHERINE DELMAR BURKE SCHOOL", "ADDRESS": "7070 CALIFORNIA ST", "CITY": "SAN FRANCISCO", "STATE": "CA", "ZIP": "94121", "ZIP4": "1710", "TELEPHONE": "(415) 751-0177", "TYPE": "1", "STATUS": "1", "POPULATION": 450, "COUNTY": "SAN FRANCISCO", "COUNTYFIPS": "07506", "COUNTRY": "USA", "LATITUDE": 37.784404, "LONGITUDE": -122.493225, "NAICS_CODE": "611110", "NAICS_DESC": "ELEMENTARY AND SECONDARY SCHOOLS", "SOURCE": "https://nces.ed.gov/surveys/pss/privateschoolsearch/school_list.asp?SchoolID=00083495", "SOURCE_DAT": 1706659200000, "VAL_METHOD": "IMAGERY", "VAL_DATE": 1275868800000, "WEBSITE": "NOT AVAILABLE", "LEVEL_": "1", "ENROLLMENT": 402, "ST_GRADE": "3", "END_GRADE": "13", "FT_TEACHER": 48, "SHELTER_ID": "NOT AVAILABLE" }, "geometry": { "type": "Point", "coordinates": [ -13635883.43265188857913, 4549013.938751521520317 ] } },
{ "type": "Feature", "properties": { "FID": 670, "NCESID": "00083509", "NAME": "SAN FRANCISCO UNIVERSITY HIGH SCHOOL", "ADDRESS": "3065 JACKSON ST", "CITY": "SAN FRANCISCO", "STATE": "CA", "ZIP": "94115", "ZIP4": "1022", "TELEPHONE": "(415) 447-3100", "TYPE": "1", "STATUS": "1", "POPULATION": 489, "COUNTY": "SAN FRANCISCO", "COUNTYFIPS": "07506", "COUNTRY": "USA", "LATITUDE": 37.79066, "LONGITUDE": -122.445351, "NAICS_CODE": "611110", "NAICS_DESC": "ELEMENTARY AND SECONDARY SCHOOLS", "SOURCE": "https://nces.ed.gov/surveys/pss/privateschoolsearch/school_list.asp?SchoolID=00083509", "SOURCE_DAT": 1706659200000, "VAL_METHOD": "IMAGERY/OTHER", "VAL_DATE": 1262131200000, "WEBSITE": "NOT AVAILABLE", "LEVEL_": "2", "ENROLLMENT": 436, "ST_GRADE": "14", "END_GRADE": "17", "FT_TEACHER": 53, "SHELTER_ID": "NOT AVAILABLE" }, "geometry": { "type": "Point", "coordinates": [ -13630554.123362431302667, 4549895.154702129773796 ] } },
{ "type": "Feature", "properties": { "FID": 673, "NCESID": "00083553", "NAME": "HAMLIN SCHOOL", "ADDRESS": "2120 BROADWAY ST", "CITY": "SAN FRANCISCO", "STATE": "CA", "ZIP": "94115", "ZIP4": "1396", "TELEPHONE": "(415) 674-5428", "TYPE": "1", "STATUS": "1", "POPULATION": 476, "COUNTY": "SAN FRANCISCO", "COUNTYFIPS": "06075", "COUNTRY": "USA", "LATITUDE": 37.794912, "LONGITUDE": -122.4325241, "NAICS_CODE": "611110", "NAICS_DESC": "ELEMENTARY AND SECONDARY SCHOOLS", "SOURCE": "https://nces.ed.gov/surveys/pss/privateschoolsearch/school_list.asp?SchoolID=00083553", "SOURCE_DAT": 1706659200000, "VAL_METHOD": "IMAGERY/OTHER", "VAL_DATE": 1710374400000, "WEBSITE": "NOT AVAILABLE", "LEVEL_": "1", "ENROLLMENT": 435, "ST_GRADE": "3", "END_GRADE": "13", "FT_TEACHER": 41, "SHELTER_ID": "NOT AVAILABLE" }, "geometry": { "type": "Point", "coordinates": [ -13629126.235087670385838, 4550494.133198061957955 ] } },
{ "type": "Feature", "properties": { "FID": 713, "NCESID": "00087569", "NAME": "KITTREDGE SCHOOL", "ADDRESS": "2355 LAKE ST", "CITY": "SAN FRANCISCO", "STATE": "CA", "ZIP": "94121", "ZIP4": "1228", "TELEPHONE": "(415) 750-8390", "TYPE": "1", "STATUS": "1", "POPULATION": 91, "COUNTY": "SAN FRANCISCO", "COUNTYFIPS": "07506", "COUNTRY": "USA", "LATITUDE": 37.7855, "LONGITUDE": -122.484951, "NAICS_CODE": "611110", "NAICS_DESC": "ELEMENTARY AND SECONDARY SCHOOLS", "SOURCE": "https://nces.ed.gov/surveys/pss/privateschoolsearch/school_list.asp?SchoolID=00087569", "SOURCE_DAT": 1706659200000, "VAL_METHOD": "IMAGERY/OTHER", "VAL_DATE": 1262131200000, "WEBSITE": "NOT AVAILABLE", "LEVEL_": "1", "ENROLLMENT": 80, "ST_GRADE": "3", "END_GRADE": "13", "FT_TEACHER": 11, "SHELTER_ID": "NOT AVAILABLE" }, "geometry": { "type": "Point", "coordinates": [ -13634962.375157795846462, 4549168.315087648108602 ] } },
{ "type": "Feature", "properties": { "FID": 717, "NCESID": "00087944", "NAME": "EDGEWOOD CENTER FOR CHILDREN & FAMILIES", "ADDRESS": "1801 VICENTE ST", "CITY": "SAN FRANCISCO", "STATE": "CA", "ZIP": "94116", "ZIP4": "2995", "TELEPHONE": "(415) 681-3211", "TYPE": "4", "STATUS": "1", "POPULATION": 31, "COUNTY": "SAN FRANCISCO", "COUNTYFIPS": "07506", "COUNTRY": "USA", "LATITUDE": 37.73798, "LONGITUDE": -122.486261, "NAICS_CODE": "611110", "NAICS_DESC": "ELEMENTARY AND SECONDARY SCHOOLS", "SOURCE": "https://nces.ed.gov/surveys/pss/privateschoolsearch/school_list.asp?SchoolID=00087944", "SOURCE_DAT": 1706659200000, "VAL_METHOD": "IMAGERY/OTHER", "VAL_DATE": 1655856000000, "WEBSITE": "NOT AVAILABLE", "LEVEL_": "3", "ENROLLMENT": 28, "ST_GRADE": "10", "END_GRADE": "17", "FT_TEACHER": 3, "SHELTER_ID": "NOT AVAILABLE" }, "geometry": { "type": "Point", "coordinates": [ -13635108.203708147630095, 4542477.013999889604747 ] } },
{ "type": "Feature", "properties": { "FID": 727, "NCESID": "00088799", "NAME": "MOTHER GOOSE SCHOOL", "ADDRESS": "334 28TH AVE", "CITY": "SAN FRANCISCO", "STATE": "CA", "ZIP": "94121", "ZIP4": "1804", "TELEPHONE": "(415) 221-6133", "TYPE": "7", "STATUS": "1", "POPULATION": 42, "COUNTY": "SAN FRANCISCO", "COUNTYFIPS": "06075", "COUNTRY": "USA", "LATITUDE": 37.7830424, "LONGITUDE": -122.4879631, "NAICS_CODE": "611110", "NAICS_DESC": "ELEMENTARY AND SECONDARY SCHOOLS", "SOURCE": "https://nces.ed.gov/surveys/pss/privateschoolsearch/school_list.asp?SchoolID=00088799", "SOURCE_DAT": 1706659200000, "VAL_METHOD": "IMAGERY/OTHER", "VAL_DATE": 1710460800000, "WEBSITE": "NOT AVAILABLE", "LEVEL_": "1", "ENROLLMENT": 25, "ST_GRADE": "2", "END_GRADE": "4", "FT_TEACHER": 17, "SHELTER_ID": "NOT AVAILABLE" }, "geometry": { "type": "Point", "coordinates": [ -13635297.684926243498921, 4548822.151578582823277 ] } },
{ "type": "Feature", "properties": { "FID": 735, "NCESID": "00089817", "NAME": "PRESIDIO HILL SCHOOL", "ADDRESS": "3839 WASHINGTON ST", "CITY": "SAN FRANCISCO", "STATE": "CA", "ZIP": "94118", "ZIP4": "1612", "TELEPHONE": "(415) 751-9318", "TYPE": "1", "STATUS": "1", "POPULATION": 240, "COUNTY": "SAN FRANCISCO", "COUNTYFIPS": "07506", "COUNTRY": "USA", "LATITUDE": 37.78858, "LONGITUDE": -122.456061, "NAICS_CODE": "611110", "NAICS_DESC": "ELEMENTARY AND SECONDARY SCHOOLS", "SOURCE": "https://nces.ed.gov/surveys/pss/privateschoolsearch/school_list.asp?SchoolID=00089817", "SOURCE_DAT": 1706659200000, "VAL_METHOD": "IMAGERY/OTHER", "VAL_DATE": 1262131200000, "WEBSITE": "NOT AVAILABLE", "LEVEL_": "1", "ENROLLMENT": 217, "ST_GRADE": "3", "END_GRADE": "13", "FT_TEACHER": 23, "SHELTER_ID": "NOT AVAILABLE" }, "geometry": { "type": "Point", "coordinates": [ -13631746.355027237907052, 4549602.158931161276996 ] } },
{ "type": "Feature", "properties": { "FID": 745, "NCESID": "00090979", "NAME": "SYNERGY SCHOOL", "ADDRESS": "1387 VALENCIA ST", "CITY": "SAN FRANCISCO", "STATE": "CA", "ZIP": "94110", "ZIP4": "3714", "TELEPHONE": "(415) 567-6177", "TYPE": "1", "STATUS": "1", "POPULATION": 209, "COUNTY": "SAN FRANCISCO", "COUNTYFIPS": "07506", "COUNTRY": "USA", "LATITUDE": 37.750897, "LONGITUDE": -122.420301, "NAICS_CODE": "611110", "NAICS_DESC": "ELEMENTARY AND SECONDARY SCHOOLS", "SOURCE": "https://nces.ed.gov/surveys/pss/privateschoolsearch/school_list.asp?SchoolID=00090979", "SOURCE_DAT": 1706659200000, "VAL_METHOD": "IMAGERY/OTHER", "VAL_DATE": 1262131200000, "WEBSITE": "NOT AVAILABLE", "LEVEL_": "1", "ENROLLMENT": 190, "ST_GRADE": "3", "END_GRADE": "13", "FT_TEACHER": 19, "SHELTER_ID": "NOT AVAILABLE" }, "geometry": { "type": "Point", "coordinates": [ -13627765.570067165419459, 4544295.434146427549422 ] } },
{ "type": "Feature", "properties": { "FID": 749, "NCESID": "00091418", "NAME": "URBAN SCHOOL OF SAN FRANCISCO", "ADDRESS": "1563 PAGE ST", "CITY": "SAN FRANCISCO", "STATE": "CA", "ZIP": "94117", "ZIP4": "2017", "TELEPHONE": "(415) 626-2616", "TYPE": "1", "STATUS": "1", "POPULATION": 471, "COUNTY": "SAN FRANCISCO", "COUNTYFIPS": "07506", "COUNTRY": "USA", "LATITUDE": 37.77076, "LONGITUDE": -122.446301, "NAICS_CODE": "611110", "NAICS_DESC": "ELEMENTARY AND SECONDARY SCHOOLS", "SOURCE": "https://nces.ed.gov/surveys/pss/privateschoolsearch/school_list.asp?SchoolID=00091418", "SOURCE_DAT": 1706659200000, "VAL_METHOD": "IMAGERY/OTHER", "VAL_DATE": 1262131200000, "WEBSITE": "NOT AVAILABLE", "LEVEL_": "2", "ENROLLMENT": 425, "ST_GRADE": "14", "END_GRADE": "17", "FT_TEACHER": 46, "SHELTER_ID": "NOT AVAILABLE" }, "geometry": { "type": "Point", "coordinates": [ -13630659.876850040629506, 4547092.312653600238264 ] } },
{ "type": "Feature", "properties": { "FID": 764, "NCESID": "00092681", "NAME": "HILLWOOD ACADEMIC DAY SCHOOL", "ADDRESS": "2521 SCOTT ST", "CITY": "SAN FRANCISCO", "STATE": "CA", "ZIP": "94115", "ZIP4": "1196", "TELEPHONE": "(415) 931-0400", "TYPE": "1", "STATUS": "1", "POPULATION": 30, "COUNTY": "SAN FRANCISCO", "COUNTYFIPS": "07506", "COUNTRY": "USA", "LATITUDE": 37.79332, "LONGITUDE": -122.440111, "NAICS_CODE": "611110", "NAICS_DESC": "ELEMENTARY AND SECONDARY SCHOOLS", "SOURCE": "https://nces.ed.gov/surveys/pss/privateschoolsearch/school_list.asp?SchoolID=00092681", "SOURCE_DAT": 1706659200000, "VAL_METHOD": "IMAGERY", "VAL_DATE": 1275868800000, "WEBSITE": "NOT AVAILABLE", "LEVEL_": "1", "ENROLLMENT": 26, "ST_GRADE": "3", "END_GRADE": "13", "FT_TEACHER": 4, "SHELTER_ID": "NOT AVAILABLE" }, "geometry": { "type": "Point", "coordinates": [ -13629970.809161039069295, 4550269.863052748143673 ] } },
{ "type": "Feature", "properties": { "FID": 772, "NCESID": "00093539", "NAME": "THE BRANDEIS SCHOOL OF SAN FRANCISCO", "ADDRESS": "655 BROTHERHOOD WAY", "CITY": "SAN FRANCISCO", "STATE": "CA", "ZIP": "94132", "ZIP4": "2901", "TELEPHONE": "(415) 406-1035", "TYPE": "1", "STATUS": "1", "POPULATION": 423, "COUNTY": "SAN FRANCISCO", "COUNTYFIPS": "06075", "COUNTRY": "USA", "LATITUDE": 37.713367, "LONGITUDE": -122.4759608, "NAICS_CODE": "611110", "NAICS_DESC": "ELEMENTARY AND SECONDARY SCHOOLS", "SOURCE": "https://nces.ed.gov/surveys/pss/privateschoolsearch/school_list.asp?SchoolID=00093539", "SOURCE_DAT": 1706659200000, "VAL_METHOD": "IMAGERY/OTHER", "VAL_DATE": 1710892800000, "WEBSITE": "NOT AVAILABLE", "LEVEL_": "1", "ENROLLMENT": 336, "ST_GRADE": "3", "END_GRADE": "13", "FT_TEACHER": 87, "SHELTER_ID": "NOT AVAILABLE" }, "geometry": { "type": "Point", "coordinates": [ -13633961.588409386575222, 4539012.941003799438477 ] } },
{ "type": "Feature", "properties": { "FID": 815, "NCESID": "00096052", "NAME": "SAN FRANCISCO ADVENTIST SCHOOL", "ADDRESS": "66 GENEVA AVE", "CITY": "SAN FRANCISCO", "STATE": "CA", "ZIP": "94112", "ZIP4": "2304", "TELEPHONE": "(415) 585-5550", "TYPE": "1", "STATUS": "1", "POPULATION": 12, "COUNTY": "SAN FRANCISCO", "COUNTYFIPS": "07506", "COUNTRY": "USA", "LATITUDE": 37.72171, "LONGITUDE": -122.451191, "NAICS_CODE": "611110", "NAICS_DESC": "ELEMENTARY AND SECONDARY SCHOOLS", "SOURCE": "https://nces.ed.gov/surveys/pss/privateschoolsearch/school_list.asp?SchoolID=00096052", "SOURCE_DAT": 1706659200000, "VAL_METHOD": "IMAGERY/OTHER", "VAL_DATE": 1262131200000, "WEBSITE": "NOT AVAILABLE", "LEVEL_": "1", "ENROLLMENT": 10, "ST_GRADE": "3", "END_GRADE": "13", "FT_TEACHER": 2, "SHELTER_ID": "NOT AVAILABLE" }, "geometry": { "type": "Point", "coordinates": [ -13631204.229134822264314, 4540187.019094676710665 ] } }
]
}
